<?xml version="1.0" encoding="UTF-8" standalone="no"?>
<aeropuertos>
    <aeropuerto area="Pacific/Port_Moresby" lat="-6.081689834590001" lon="145.391998291" matricula="GKA" nombreCorto="Goroka" nombreLargo="Goroka Airport" pais="Papua New Guinea"/>
    <aeropuerto area="Pacific/Port_Moresby" lat="-5.20707988739" lon="145.789001465" matricula="MAG" nombreCorto="Madang" nombreLargo="Madang Airport" pais="Papua New Guinea"/>
    <aeropuerto area="Pacific/Port_Moresby" lat="-5.826789855957031" lon="144.29600524902344" matricula="HGU" nombreCorto="Mount Hagen" nombreLargo="Mount Hagen Kagamuga Airport" pais="Papua New Guinea"/>
    <aeropuerto area="Pacific/Port_Moresby" lat="-6.569803" lon="146.725977" matricula="LAE" nombreCorto="Nadzab" nombreLargo="Nadzab Airport" pais="Papua New Guinea"/>
    <aeropuerto area="Pacific/Port_Moresby" lat="-9.443380355834961" lon="147.22000122070312" matricula="POM" nombreCorto="Port Moresby" nombreLargo="Port Moresby Jacksons International Airport" pais="Papua New Guinea"/>
    <aeropuerto area="Pacific/Port_Moresby" lat="-3.58383011818" lon="143.669006348" matricula="WWK" nombreCorto="Wewak" nombreLargo="Wewak International Airport" pais="Papua New Guinea"/>
    <aeropuerto area="America/Godthab" lat="61.1604995728" lon="-45.4259986877" matricula="UAK" nombreCorto="Narssarssuaq" nombreLargo="Narsarsuaq Airport" pais="Greenland"/>
    <aeropuerto area="America/Godthab" lat="64.19090271" lon="-51.6781005859" matricula="GOH" nombreCorto="Godthaab" nombreLargo="Godthaab / Nuuk Airport" pais="Greenland"/>
    <aeropuerto area="America/Godthab" lat="67.0122218992" lon="-50.7116031647" matricula="SFJ" nombreCorto="Sondrestrom" nombreLargo="Kangerlussuaq Airport" pais="Greenland"/>
    <aeropuerto area="America/Thule" lat="76.5311965942" lon="-68.7032012939" matricula="THU" nombreCorto="Thule" nombreLargo="Thule Air Base" pais="Greenland"/>
    <aeropuerto area="Atlantic/Reykjavik" lat="65.66000366210938" lon="-18.07270050048828" matricula="AEY" nombreCorto="Akureyri" nombreLargo="Akureyri Airport" pais="Iceland"/>
    <aeropuerto area="Atlantic/Reykjavik" lat="65.2833023071289" lon="-14.401399612426758" matricula="EGS" nombreCorto="Egilsstadir" nombreLargo="Egilsstaðir Airport" pais="Iceland"/>
    <aeropuerto area="Atlantic/Reykjavik" lat="64.295601" lon="-15.2272" matricula="HFN" nombreCorto="Hofn" nombreLargo="Hornafjörður Airport" pais="Iceland"/>
    <aeropuerto area="Atlantic/Reykjavik" lat="65.952301" lon="-17.426001" matricula="HZK" nombreCorto="Husavik" nombreLargo="Húsavík Airport" pais="Iceland"/>
    <aeropuerto area="Atlantic/Reykjavik" lat="66.05809783935547" lon="-23.135299682617188" matricula="IFJ" nombreCorto="Isafjordur" nombreLargo="Ísafjörður Airport" pais="Iceland"/>
    <aeropuerto area="Atlantic/Reykjavik" lat="63.985000610352" lon="-22.605600357056" matricula="KEF" nombreCorto="Keflavik" nombreLargo="Keflavik International Airport" pais="Iceland"/>
    <aeropuerto area="Atlantic/Reykjavik" lat="65.555801" lon="-23.965" matricula="PFJ" nombreCorto="Patreksfjordur" nombreLargo="Patreksfjörður Airport" pais="Iceland"/>
    <aeropuerto area="Atlantic/Reykjavik" lat="64.1299972534" lon="-21.9405994415" matricula="RKV" nombreCorto="Reykjavik" nombreLargo="Reykjavik Airport" pais="Iceland"/>
    <aeropuerto area="Atlantic/Reykjavik" lat="66.133301" lon="-18.9167" matricula="SIJ" nombreCorto="Siglufjordur" nombreLargo="Siglufjörður Airport" pais="Iceland"/>
    <aeropuerto area="Atlantic/Reykjavik" lat="63.42430114746094" lon="-20.278900146484375" matricula="VEY" nombreCorto="Vestmannaeyjar" nombreLargo="Vestmannaeyjar Airport" pais="Iceland"/>
    <aeropuerto area="America/Toronto" lat="46.48500061035156" lon="-84.5093994140625" matricula="YAM" nombreCorto="Sault Sainte Marie" nombreLargo="Sault Ste Marie Airport" pais="Canada"/>
    <aeropuerto area="America/Winnipeg" lat="50.0564002991" lon="-97.03250122070001" matricula="YAV" nombreCorto="Winnipeg" nombreLargo="Winnipeg / St. Andrews Airport" pais="Canada"/>
    <aeropuerto area="America/Halifax" lat="44.6397018433" lon="-63.499401092499994" matricula="YAW" nombreCorto="Halifax" nombreLargo="Halifax / CFB Shearwater Heliport" pais="Canada"/>
    <aeropuerto area="America/St_Johns" lat="51.3918991089" lon="-56.083099365200006" matricula="YAY" nombreCorto="St. Anthony" nombreLargo="St. Anthony Airport" pais="Canada"/>
    <aeropuerto area="America/Vancouver" lat="49.079833" lon="-125.775583" matricula="YAZ" nombreCorto="Tofino" nombreLargo="Tofino / Long Beach Airport" pais="Canada"/>
    <aeropuerto area="America/Edmonton" lat="68.534401" lon="-89.808098" matricula="YBB" nombreCorto="Pelly Bay" nombreLargo="Kugaaruk Airport" pais="Canada"/>
    <aeropuerto area="America/Toronto" lat="49.13249969482422" lon="-68.20439910888672" matricula="YBC" nombreCorto="Baie Comeau" nombreLargo="Baie Comeau Airport" pais="Canada"/>
    <aeropuerto area="America/Toronto" lat="48.33060073852539" lon="-70.99639892578125" matricula="YBG" nombreCorto="Bagotville" nombreLargo="CFB Bagotville" pais="Canada"/>
    <aeropuerto area="America/Winnipeg" lat="64.29889678960001" lon="-96.077796936" matricula="YBK" nombreCorto="Baker Lake" nombreLargo="Baker Lake Airport" pais="Canada"/>
    <aeropuerto area="America/Vancouver" lat="49.950801849365234" lon="-125.27100372314453" matricula="YBL" nombreCorto="Campbell River" nombreLargo="Campbell River Airport" pais="Canada"/>
    <aeropuerto area="America/Winnipeg" lat="49.91" lon="-99.951897" matricula="YBR" nombreCorto="Brandon" nombreLargo="Brandon Municipal Airport" pais="Canada"/>
    <aeropuerto area="America/Edmonton" lat="69.1081008911" lon="-105.138000488" matricula="YCB" nombreCorto="Cambridge Bay" nombreLargo="Cambridge Bay Airport" pais="Canada"/>
    <aeropuerto area="America/Vancouver" lat="49.054970224899996" lon="-123.869862556" matricula="YCD" nombreCorto="Nanaimo" nombreLargo="Nanaimo Airport" pais="Canada"/>
    <aeropuerto area="America/Vancouver" lat="49.2963981628" lon="-117.632003784" matricula="YCG" nombreCorto="Castlegar" nombreLargo="Castlegar/West Kootenay Regional Airport" pais="Canada"/>
    <aeropuerto area="America/Halifax" lat="47.007801" lon="-65.449203" matricula="YCH" nombreCorto="Chatham" nombreLargo="Miramichi Airport" pais="Canada"/>
    <aeropuerto area="America/Halifax" lat="47.990799" lon="-66.330299" matricula="YCL" nombreCorto="Charlo" nombreLargo="Charlo Airport" pais="Canada"/>
    <aeropuerto area="America/Edmonton" lat="67.81670379639999" lon="-115.143997192" matricula="YCO" nombreCorto="Coppermine" nombreLargo="Kugluktuk Airport" pais="Canada"/>
    <aeropuerto area="America/Edmonton" lat="52.0750007629" lon="-111.444999695" matricula="YCT" nombreCorto="Coronation" nombreLargo="Coronation Airport" pais="Canada"/>
    <aeropuerto area="America/Vancouver" lat="49.1528015137" lon="-121.939002991" matricula="YCW" nombreCorto="Chilliwack" nombreLargo="Chilliwack Airport" pais="Canada"/>
    <aeropuerto area="America/Toronto" lat="70.4860992432" lon="-68.5167007446" matricula="YCY" nombreCorto="Clyde River" nombreLargo="Clyde River Airport" pais="Canada"/>
    <aeropuerto area="America/Coral_Harbour" lat="64.1932983398" lon="-83.3593978882" matricula="YZS" nombreCorto="Coral Harbour" nombreLargo="Coral Harbour Airport" pais="Canada"/>
    <aeropuerto area="America/Vancouver" lat="64.04309844970703" lon="-139.1280059814453" matricula="YDA" nombreCorto="Dawson" nombreLargo="Dawson City Airport" pais="Canada"/>
    <aeropuerto area="America/Vancouver" lat="61.37110137939453" lon="-139.04100036621094" matricula="YDB" nombreCorto="Burwash" nombreLargo="Burwash Airport" pais="Canada"/>
    <aeropuerto area="America/Vancouver" lat="49.4681015015" lon="-120.511001587" matricula="YDC" nombreCorto="Princeton" nombreLargo="Princeton Airport" pais="Canada"/>
    <aeropuerto area="America/St_Johns" lat="49.21080017089844" lon="-57.39139938354492" matricula="YDF" nombreCorto="Deer Lake" nombreLargo="Deer Lake Airport" pais="Canada"/>
    <aeropuerto area="America/Vancouver" lat="58.4221992493" lon="-130.031997681" matricula="YDL" nombreCorto="Dease Lake" nombreLargo="Dease Lake Airport" pais="Canada"/>
    <aeropuerto area="America/Winnipeg" lat="51.100799560546875" lon="-100.052001953125" matricula="YDN" nombreCorto="Dauphin" nombreLargo="Dauphin Barker Airport" pais="Canada"/>
    <aeropuerto area="America/Dawson_Creek" lat="55.7422981262207" lon="-120.18299865722656" matricula="YDQ" nombreCorto="Dawson Creek" nombreLargo="Dawson Creek Airport" pais="Canada"/>
    <aeropuerto area="America/Edmonton" lat="53.309700012200004" lon="-113.580001831" matricula="YEG" nombreCorto="Edmonton" nombreLargo="Edmonton International Airport" pais="Canada"/>
    <aeropuerto area="America/Winnipeg" lat="61.0942001343" lon="-94.07080078119999" matricula="YEK" nombreCorto="Eskimo Point" nombreLargo="Arviat Airport" pais="Canada"/>
    <aeropuerto area="America/Regina" lat="49.2103004456" lon="-102.966003418" matricula="YEN" nombreCorto="Estevan" nombreLargo="Estevan Airport" pais="Canada"/>
    <aeropuerto area="America/Edmonton" lat="53.578899383499994" lon="-116.464996338" matricula="YET" nombreCorto="Edson" nombreLargo="Edson Airport" pais="Canada"/>
    <aeropuerto area="America/Winnipeg" lat="79.9946975708" lon="-85.814201355" matricula="YEU" nombreCorto="Eureka" nombreLargo="Eureka Airport" pais="Canada"/>
    <aeropuerto area="America/Edmonton" lat="68.30419921880001" lon="-133.483001709" matricula="YEV" nombreCorto="Inuvik" nombreLargo="Inuvik Mike Zubko Airport" pais="Canada"/>
    <aeropuerto area="America/Toronto" lat="63.756401062" lon="-68.5558013916" matricula="YFB" nombreCorto="Iqaluit" nombreLargo="Iqaluit Airport" pais="Canada"/>
    <aeropuerto area="America/Halifax" lat="45.868900299072266" lon="-66.53720092773438" matricula="YFC" nombreCorto="Fredericton" nombreLargo="Fredericton Airport" pais="Canada"/>
    <aeropuerto area="America/Toronto" lat="48.74610137939453" lon="-69.09719848632812" matricula="\N" nombreCorto="Forestville" nombreLargo="Forestville Airport" pais="Canada"/>
    <aeropuerto area="America/Winnipeg" lat="54.6781005859375" lon="-101.68199920654297" matricula="YFO" nombreCorto="Flin Flon" nombreLargo="Flin Flon Airport" pais="Canada"/>
    <aeropuerto area="America/Edmonton" lat="61.1808013916" lon="-113.690002441" matricula="YFR" nombreCorto="Fort Resolution" nombreLargo="Fort Resolution Airport" pais="Canada"/>
    <aeropuerto area="America/Edmonton" lat="61.76020050048828" lon="-121.23699951171875" matricula="YFS" nombreCorto="Fort Simpson" nombreLargo="Fort Simpson Airport" pais="Canada"/>
    <aeropuerto area="America/Toronto" lat="44.22529983520508" lon="-76.5969009399414" matricula="YGK" nombreCorto="Kingston" nombreLargo="Kingston Norman Rogers Airport" pais="Canada"/>
    <aeropuerto area="America/Toronto" lat="53.625301361083984" lon="-77.7042007446289" matricula="YGL" nombreCorto="La Grande Riviere" nombreLargo="La Grande Rivière Airport" pais="Canada"/>
    <aeropuerto area="America/Toronto" lat="48.7752990723" lon="-64.4785995483" matricula="YGP" nombreCorto="Gaspe" nombreLargo="Gaspé (Michel-Pouliot) Airport" pais="Canada"/>
    <aeropuerto area="America/Toronto" lat="49.77830123901367" lon="-86.93939971923828" matricula="YGQ" nombreCorto="Geraldton" nombreLargo="Geraldton Greenstone Regional Airport" pais="Canada"/>
    <aeropuerto area="America/Toronto" lat="47.42470169067383" lon="-61.778099060058594" matricula="YGR" nombreCorto="Iles De La Madeleine" nombreLargo="Îles-de-la-Madeleine Airport" pais="Canada"/>
    <aeropuerto area="America/Regina" lat="52.8166999817" lon="-102.310997009" matricula="YHB" nombreCorto="Hudson Bay" nombreLargo="Hudson Bay Airport" pais="Canada"/>
    <aeropuerto area="America/Winnipeg" lat="49.83169937133789" lon="-92.74420166015625" matricula="YHD" nombreCorto="Dryden" nombreLargo="Dryden Regional Airport" pais="Canada"/>
    <aeropuerto area="America/Edmonton" lat="70.76280212402344" lon="-117.80599975585938" matricula="YHI" nombreCorto="Holman Island" nombreLargo="Ulukhaktok Holman Airport" pais="Canada"/>
    <aeropuerto area="America/Edmonton" lat="68.635597229" lon="-95.84970092770001" matricula="YHK" nombreCorto="Gjoa Haven" nombreLargo="Gjoa Haven Airport" pais="Canada"/>
    <aeropuerto area="America/Toronto" lat="43.173599243199995" lon="-79.93499755859999" matricula="YHM" nombreCorto="Hamilton" nombreLargo="John C. Munro Hamilton International Airport" pais="Canada"/>
    <aeropuerto area="America/Toronto" lat="45.5175018311" lon="-73.4169006348" matricula="YHU" nombreCorto="Montreal" nombreLargo="Montréal / Saint-Hubert Airport" pais="Canada"/>
    <aeropuerto area="America/Edmonton" lat="60.8396987915" lon="-115.782997131" matricula="YHY" nombreCorto="Hay River" nombreLargo="Hay River / Merlyn Carter Airport" pais="Canada"/>
    <aeropuerto area="America/Halifax" lat="44.8807983398" lon="-63.5085983276" matricula="YHZ" nombreCorto="Halifax" nombreLargo="Halifax / Stanfield International Airport" pais="Canada"/>
    <aeropuerto area="America/Coral_Harbour" lat="48.7738990784" lon="-91.6386032104" matricula="YIB" nombreCorto="Atikokan" nombreLargo="Atikokan Municipal Airport" pais="Canada"/>
    <aeropuerto area="America/Toronto" lat="72.6832962036" lon="-77.9666976929" matricula="YIO" nombreCorto="Pond Inlet" nombreLargo="Pond Inlet Airport" pais="Canada"/>
    <aeropuerto area="America/Toronto" lat="45.29439926147461" lon="-73.28109741210938" matricula="YJN" nombreCorto="St. Jean" nombreLargo="St Jean Airport" pais="Canada"/>
    <aeropuerto area="America/St_Johns" lat="48.5442008972168" lon="-58.54999923706055" matricula="YJT" nombreCorto="Stephenville" nombreLargo="Stephenville Airport" pais="Canada"/>
    <aeropuerto area="America/Vancouver" lat="50.7022018433" lon="-120.444000244" matricula="YKA" nombreCorto="Kamloops" nombreLargo="Kamloops Airport" pais="Canada"/>
    <aeropuerto area="America/Toronto" lat="43.460800170899994" lon="-80.3786010742" matricula="YKF" nombreCorto="Waterloo" nombreLargo="Waterloo Airport" pais="Canada"/>
    <aeropuerto area="America/Toronto" lat="54.805301666259766" lon="-66.8052978515625" matricula="YKL" nombreCorto="Schefferville" nombreLargo="Schefferville Airport" pais="Canada"/>
    <aeropuerto area="America/Regina" lat="51.5175018311" lon="-109.180999756" matricula="YKY" nombreCorto="Kindersley" nombreLargo="Kindersley Airport" pais="Canada"/>
    <aeropuerto area="America/Toronto" lat="43.86220169067383" lon="-79.37000274658203" matricula="YKZ" nombreCorto="Toronto" nombreLargo="Buttonville Municipal Airport" pais="Canada"/>
    <aeropuerto area="America/Toronto" lat="47.81999969482422" lon="-83.3467025756836" matricula="YLD" nombreCorto="Chapleau" nombreLargo="Chapleau Airport" pais="Canada"/>
    <aeropuerto area="America/Regina" lat="54.125301361083984" lon="-108.52300262451172" matricula="YLJ" nombreCorto="Meadow Lake" nombreLargo="Meadow Lake Airport" pais="Canada"/>
    <aeropuerto area="America/Edmonton" lat="53.309200286865234" lon="-110.072998046875" matricula="YLL" nombreCorto="Lloydminster" nombreLargo="Lloydminster Airport" pais="Canada"/>
    <aeropuerto area="America/Toronto" lat="82.51779937740001" lon="-62.2806015015" matricula="YLT" nombreCorto="Alert" nombreLargo="Alert Airport" pais="Canada"/>
    <aeropuerto area="America/Vancouver" lat="49.9561004639" lon="-119.377998352" matricula="YLW" nombreCorto="Kelowna" nombreLargo="Kelowna International Airport" pais="Canada"/>
    <aeropuerto area="America/Vancouver" lat="63.61640167236328" lon="-135.8679962158203" matricula="YMA" nombreCorto="Mayo" nombreLargo="Mayo Airport" pais="Canada"/>
    <aeropuerto area="America/Regina" lat="50.330299377441406" lon="-105.55899810791016" matricula="YMJ" nombreCorto="Moose Jaw" nombreLargo="Moose Jaw Air Vice Marshal C. M. McEwen Airport" pais="Canada"/>
    <aeropuerto area="America/Edmonton" lat="56.653301239" lon="-111.222000122" matricula="YMM" nombreCorto="Fort Mcmurray" nombreLargo="Fort McMurray Airport" pais="Canada"/>
    <aeropuerto area="America/Toronto" lat="51.291099548339844" lon="-80.60780334472656" matricula="YMO" nombreCorto="Moosonee" nombreLargo="Moosonee Airport" pais="Canada"/>
    <aeropuerto area="America/Toronto" lat="46.2728004456" lon="-75.9906005859" matricula="YMW" nombreCorto="Maniwaki" nombreLargo="Maniwaki Airport" pais="Canada"/>
    <aeropuerto area="America/Toronto" lat="45.6795005798" lon="-74.0386962891" matricula="YMX" nombreCorto="Montreal" nombreLargo="Montreal International (Mirabel) Airport" pais="Canada"/>
    <aeropuerto area="America/Toronto" lat="50.189998626708984" lon="-61.78919982910156" matricula="YNA" nombreCorto="Natashquan" nombreLargo="Natashquan Airport" pais="Canada"/>
    <aeropuerto area="America/Toronto" lat="45.521701812699995" lon="-75.5635986328" matricula="YND" nombreCorto="Gatineau" nombreLargo="Ottawa / Gatineau Airport" pais="Canada"/>
    <aeropuerto area="America/Toronto" lat="49.76169967651367" lon="-77.80280303955078" matricula="YNM" nombreCorto="Matagami" nombreLargo="Matagami Airport" pais="Canada"/>
    <aeropuerto area="America/Vancouver" lat="67.57060241699219" lon="-139.83900451660156" matricula="YOC" nombreCorto="Old Crow" nombreLargo="Old Crow Airport" pais="Canada"/>
    <aeropuerto area="America/Edmonton" lat="54.404998779296875" lon="-110.27899932861328" matricula="YOD" nombreCorto="Cold Lake" nombreLargo="CFB Cold Lake" pais="Canada"/>
    <aeropuerto area="America/Edmonton" lat="58.62139892578125" lon="-117.16500091552734" matricula="YOJ" nombreCorto="High Level" nombreLargo="High Level Airport" pais="Canada"/>
    <aeropuerto area="America/Toronto" lat="45.3224983215332" lon="-75.66919708251953" matricula="YOW" nombreCorto="Ottawa" nombreLargo="Ottawa Macdonald-Cartier International Airport" pais="Canada"/>
    <aeropuerto area="America/Regina" lat="53.214199066199996" lon="-105.672996521" matricula="YPA" nombreCorto="Prince Albert" nombreLargo="Prince Albert Glass Field" pais="Canada"/>
    <aeropuerto area="America/Edmonton" lat="56.226898193359375" lon="-117.4469985961914" matricula="YPE" nombreCorto="Peace River" nombreLargo="Peace River Airport" pais="Canada"/>
    <aeropuerto area="America/Winnipeg" lat="49.903099" lon="-98.273817" matricula="YPG" nombreCorto="Portage-la-prairie" nombreLargo="Southport Airport" pais="Canada"/>
    <aeropuerto area="America/Vancouver" lat="49.21609878540039" lon="-122.70999908447266" matricula="\N" nombreCorto="Pitt Meadows" nombreLargo="Pitt Meadows Airport" pais="Canada"/>
    <aeropuerto area="America/Coral_Harbour" lat="51.4463996887207" lon="-90.21420288085938" matricula="YPL" nombreCorto="Pickle Lake" nombreLargo="Pickle Lake Airport" pais="Canada"/>
    <aeropuerto area="America/Toronto" lat="49.83639907836914" lon="-64.2885971069336" matricula="YPN" nombreCorto="Port Menier" nombreLargo="Port Menier Airport" pais="Canada"/>
    <aeropuerto area="America/Toronto" lat="44.22999954223633" lon="-78.36329650878906" matricula="YPQ" nombreCorto="Peterborough" nombreLargo="Peterborough Airport" pais="Canada"/>
    <aeropuerto area="America/Vancouver" lat="54.286098480199996" lon="-130.445007324" matricula="YPR" nombreCorto="Prince Pupert" nombreLargo="Prince Rupert Airport" pais="Canada"/>
    <aeropuerto area="America/Edmonton" lat="58.7672004699707" lon="-111.11699676513672" matricula="YPY" nombreCorto="Fort Chipewyan" nombreLargo="Fort Chipewyan Airport" pais="Canada"/>
    <aeropuerto area="America/Toronto" lat="44.974700927734375" lon="-79.30329895019531" matricula="YQA" nombreCorto="Muskoka" nombreLargo="Muskoka Airport" pais="Canada"/>
    <aeropuerto area="America/Toronto" lat="46.7911" lon="-71.393303" matricula="YQB" nombreCorto="Quebec" nombreLargo="Quebec Jean Lesage International Airport" pais="Canada"/>
    <aeropuerto area="America/Edmonton" lat="52.18220138549805" lon="-113.89399719238281" matricula="YQF" nombreCorto="Red Deer Industrial" nombreLargo="Red Deer Regional Airport" pais="Canada"/>
    <aeropuerto area="America/Toronto" lat="42.27560043334961" lon="-82.95559692382812" matricula="YQG" nombreCorto="Windsor" nombreLargo="Windsor Airport" pais="Canada"/>
    <aeropuerto area="America/Vancouver" lat="60.11640167236328" lon="-128.82200622558594" matricula="YQH" nombreCorto="Watson Lake" nombreLargo="Watson Lake Airport" pais="Canada"/>
    <aeropuerto area="America/Winnipeg" lat="49.788299560546875" lon="-94.36309814453125" matricula="YQK" nombreCorto="Kenora" nombreLargo="Kenora Airport" pais="Canada"/>
    <aeropuerto area="America/Edmonton" lat="49.6302986145" lon="-112.800003052" matricula="YQL" nombreCorto="Lethbridge" nombreLargo="Lethbridge County Airport" pais="Canada"/>
    <aeropuerto area="America/Halifax" lat="46.11220169067383" lon="-64.67859649658203" matricula="YQM" nombreCorto="Moncton" nombreLargo="Greater Moncton International Airport" pais="Canada"/>
    <aeropuerto area="America/Vancouver" lat="49.71080017089844" lon="-124.88700103759766" matricula="YQQ" nombreCorto="Comox" nombreLargo="Comox Airport" pais="Canada"/>
    <aeropuerto area="America/Regina" lat="50.43190002441406" lon="-104.66600036621094" matricula="YQR" nombreCorto="Regina" nombreLargo="Regina International Airport" pais="Canada"/>
    <aeropuerto area="America/Toronto" lat="48.37189865112305" lon="-89.32389831542969" matricula="YQT" nombreCorto="Thunder Bay" nombreLargo="Thunder Bay Airport" pais="Canada"/>
    <aeropuerto area="America/Edmonton" lat="55.1796989441" lon="-118.885002136" matricula="YQU" nombreCorto="Grande Prairie" nombreLargo="Grande Prairie Airport" pais="Canada"/>
    <aeropuerto area="America/Regina" lat="51.26470184326172" lon="-102.46199798583984" matricula="YQV" nombreCorto="Yorkton" nombreLargo="Yorkton Municipal Airport" pais="Canada"/>
    <aeropuerto area="America/Regina" lat="52.76919937133789" lon="-108.24400329589844" matricula="YQW" nombreCorto="North Battleford" nombreLargo="North Battleford Airport" pais="Canada"/>
    <aeropuerto area="America/St_Johns" lat="48.9369010925293" lon="-54.56809997558594" matricula="YQX" nombreCorto="Gander" nombreLargo="Gander International Airport" pais="Canada"/>
    <aeropuerto area="America/Halifax" lat="46.161399841299996" lon="-60.0477981567" matricula="YQY" nombreCorto="Sydney" nombreLargo="Sydney / J.A. Douglas McCurdy Airport" pais="Canada"/>
    <aeropuerto area="America/Vancouver" lat="53.026100158691406" lon="-122.51000213623047" matricula="YQZ" nombreCorto="Quesnel" nombreLargo="Quesnel Airport" pais="Canada"/>
    <aeropuerto area="America/Winnipeg" lat="74.7169036865" lon="-94.9693984985" matricula="YRB" nombreCorto="Resolute" nombreLargo="Resolute Bay Airport" pais="Canada"/>
    <aeropuerto area="America/Toronto" lat="47.764400482177734" lon="-69.58470153808594" matricula="YRI" nombreCorto="Riviere Du Loup" nombreLargo="Rivière-du-Loup Airport" pais="Canada"/>
    <aeropuerto area="America/Toronto" lat="48.52000045776367" lon="-72.2656021118164" matricula="YRJ" nombreCorto="Roberval" nombreLargo="Roberval Airport" pais="Canada"/>
    <aeropuerto area="America/Edmonton" lat="52.4296989441" lon="-114.903999329" matricula="YRM" nombreCorto="Rocky Mountain House" nombreLargo="Rocky Mountain House Airport" pais="Canada"/>
    <aeropuerto area="America/Winnipeg" lat="62.8114013672" lon="-92.1157989502" matricula="YRT" nombreCorto="Rankin Inlet" nombreLargo="Rankin Inlet Airport" pais="Canada"/>
    <aeropuerto area="America/Toronto" lat="46.625" lon="-80.79889678955078" matricula="YSB" nombreCorto="Sudbury" nombreLargo="Sudbury Airport" pais="Canada"/>
    <aeropuerto area="America/Toronto" lat="45.4385986328125" lon="-71.69139862060547" matricula="YSC" nombreCorto="Sherbrooke" nombreLargo="Sherbrooke Airport" pais="Canada"/>
    <aeropuerto area="America/Halifax" lat="45.31610107421875" lon="-65.89029693603516" matricula="YSJ" nombreCorto="St. John" nombreLargo="Saint John Airport" pais="Canada"/>
    <aeropuerto area="America/Edmonton" lat="60.020301818847656" lon="-111.96199798583984" matricula="YSM" nombreCorto="Fort Smith" nombreLargo="Fort Smith Airport" pais="Canada"/>
    <aeropuerto area="America/Toronto" lat="72.982201" lon="-84.613602" matricula="YSR" nombreCorto="Nanisivik" nombreLargo="Nanisivik Airport" pais="Canada"/>
    <aeropuerto area="America/Halifax" lat="46.44060134887695" lon="-63.83359909057617" matricula="YSU" nombreCorto="Summerside" nombreLargo="Summerside Airport" pais="Canada"/>
    <aeropuerto area="America/Edmonton" lat="71.9938964844" lon="-125.242996216" matricula="YSY" nombreCorto="Sachs Harbour" nombreLargo="Sachs Harbour (David Nasogaluak Jr. Saaryuaq) Airport" pais="Canada"/>
    <aeropuerto area="America/Toronto" lat="64.2300033569" lon="-76.5267028809" matricula="YTE" nombreCorto="Cape Dorset" nombreLargo="Cape Dorset Airport" pais="Canada"/>
    <aeropuerto area="America/Winnipeg" lat="55.80110168457031" lon="-97.86419677734375" matricula="YTH" nombreCorto="Thompson" nombreLargo="Thompson Airport" pais="Canada"/>
    <aeropuerto area="America/Toronto" lat="44.118900299072266" lon="-77.5280990600586" matricula="YTR" nombreCorto="Trenton" nombreLargo="CFB Trenton" pais="Canada"/>
    <aeropuerto area="America/Toronto" lat="48.569698333699996" lon="-81.376701355" matricula="YTS" nombreCorto="Timmins" nombreLargo="Timmins/Victor M. Power" pais="Canada"/>
    <aeropuerto area="America/Toronto" lat="43.627499" lon="-79.396202" matricula="YTZ" nombreCorto="Toronto" nombreLargo="Billy Bishop Toronto City Centre Airport" pais="Canada"/>
    <aeropuerto area="America/Edmonton" lat="69.43329620361328" lon="-133.0260009765625" matricula="YUB" nombreCorto="Tuktoyaktuk" nombreLargo="Tuktoyaktuk Airport" pais="Canada"/>
    <aeropuerto area="America/Toronto" lat="45.4706001282" lon="-73.7407989502" matricula="YUL" nombreCorto="Montreal" nombreLargo="Montreal / Pierre Elliott Trudeau International Airport" pais="Canada"/>
    <aeropuerto area="America/Winnipeg" lat="66.5214004517" lon="-86.22470092770001" matricula="YUT" nombreCorto="Repulse Bay" nombreLargo="Repulse Bay Airport" pais="Canada"/>
    <aeropuerto area="America/Toronto" lat="68.77610015869999" lon="-81.2425" matricula="YUX" nombreCorto="Hall Beach" nombreLargo="Hall Beach Airport" pais="Canada"/>
    <aeropuerto area="America/Toronto" lat="48.20610046386719" lon="-78.83560180664062" matricula="YUY" nombreCorto="Rouyn" nombreLargo="Rouyn Noranda Airport" pais="Canada"/>
    <aeropuerto area="America/Regina" lat="55.151401519800004" lon="-105.262001038" matricula="YVC" nombreCorto="La Ronge" nombreLargo="La Ronge Airport" pais="Canada"/>
    <aeropuerto area="America/Edmonton" lat="53.355800628699996" lon="-110.823997498" matricula="YVG" nombreCorto="Vermillion" nombreLargo="Vermilion Airport" pais="Canada"/>
    <aeropuerto area="America/Toronto" lat="67.5457992554" lon="-64.03140258789999" matricula="YVM" nombreCorto="Broughton Island" nombreLargo="Qikiqtarjuaq Airport" pais="Canada"/>
    <aeropuerto area="America/Toronto" lat="48.0532989502" lon="-77.7827987671" matricula="YVO" nombreCorto="Val D'or" nombreLargo="Val-d'Or Airport" pais="Canada"/>
    <aeropuerto area="America/Toronto" lat="58.096099853515625" lon="-68.4269027709961" matricula="YVP" nombreCorto="Quujjuaq" nombreLargo="Kuujjuaq Airport" pais="Canada"/>
    <aeropuerto area="America/Edmonton" lat="65.28160095214844" lon="-126.7979965209961" matricula="YVQ" nombreCorto="Norman Wells" nombreLargo="Norman Wells Airport" pais="Canada"/>
    <aeropuerto area="America/Vancouver" lat="49.193901062" lon="-123.183998108" matricula="YVR" nombreCorto="Vancouver" nombreLargo="Vancouver International Airport" pais="Canada"/>
    <aeropuerto area="America/Regina" lat="55.8418998718" lon="-108.417999268" matricula="YVT" nombreCorto="Buffalo Narrows" nombreLargo="Buffalo Narrows Airport" pais="Canada"/>
    <aeropuerto area="America/Toronto" lat="44.7458" lon="-81.107201" matricula="YVV" nombreCorto="Wiarton" nombreLargo="Wiarton Airport" pais="Canada"/>
    <aeropuerto area="America/Toronto" lat="45.95220184326172" lon="-77.31919860839844" matricula="YWA" nombreCorto="Petawawa" nombreLargo="Petawawa Airport" pais="Canada"/>
    <aeropuerto area="America/Winnipeg" lat="49.909999847399995" lon="-97.2398986816" matricula="YWG" nombreCorto="Winnipeg" nombreLargo="Winnipeg / James Armstrong Richardson International Airport" pais="Canada"/>
    <aeropuerto area="America/Halifax" lat="52.92190170288086" lon="-66.8644027709961" matricula="YWK" nombreCorto="Wabush" nombreLargo="Wabush Airport" pais="Canada"/>
    <aeropuerto area="America/Vancouver" lat="52.1831016541" lon="-122.054000854" matricula="YWL" nombreCorto="Williams Lake" nombreLargo="Williams Lake Airport" pais="Canada"/>
    <aeropuerto area="America/Edmonton" lat="63.20940017700195" lon="-123.43699645996094" matricula="YWY" nombreCorto="Wrigley" nombreLargo="Wrigley Airport" pais="Canada"/>
    <aeropuerto area="America/Edmonton" lat="49.610801696777" lon="-115.78199768066" matricula="YXC" nombreCorto="Cranbrook" nombreLargo="Cranbrook/Canadian Rockies International Airport" pais="Canada"/>
    <aeropuerto area="America/Edmonton" lat="53.5724983215" lon="-113.521003723" matricula="YXD" nombreCorto="Edmonton" nombreLargo="Edmonton City Centre (Blatchford Field) Airport" pais="Canada"/>
    <aeropuerto area="America/Regina" lat="52.170799255371094" lon="-106.69999694824219" matricula="YXE" nombreCorto="Saskatoon" nombreLargo="Saskatoon John G. Diefenbaker International Airport" pais="Canada"/>
    <aeropuerto area="America/Edmonton" lat="50.01890182495117" lon="-110.72100067138672" matricula="YXH" nombreCorto="Medicine Hat" nombreLargo="Medicine Hat Airport" pais="Canada"/>
    <aeropuerto area="America/Dawson_Creek" lat="56.23809814453125" lon="-120.73999786376953" matricula="YXJ" nombreCorto="Fort Saint John" nombreLargo="Fort St John Airport" pais="Canada"/>
    <aeropuerto area="America/Winnipeg" lat="50.11389923095703" lon="-91.9052963256836" matricula="YXL" nombreCorto="Sioux Lookout" nombreLargo="Sioux Lookout Airport" pais="Canada"/>
    <aeropuerto area="America/Toronto" lat="66.1449966431" lon="-65.71360015869999" matricula="YXP" nombreCorto="Pangnirtung" nombreLargo="Pangnirtung Airport" pais="Canada"/>
    <aeropuerto area="America/Toronto" lat="47.697400654599996" lon="-79.8473453522" matricula="YXR" nombreCorto="Earlton" nombreLargo="Earlton (Timiskaming Regional) Airport" pais="Canada"/>
    <aeropuerto area="America/Vancouver" lat="53.8894004822" lon="-122.679000854" matricula="YXS" nombreCorto="Prince George" nombreLargo="Prince George Airport" pais="Canada"/>
    <aeropuerto area="America/Vancouver" lat="54.468498" lon="-128.576009" matricula="YXT" nombreCorto="Terrace" nombreLargo="Northwest Regional Airport Terrace-Kitimat" pais="Canada"/>
    <aeropuerto area="America/Toronto" lat="43.035599" lon="-81.1539" matricula="YXU" nombreCorto="London" nombreLargo="London Airport" pais="Canada"/>
    <aeropuerto area="America/Vancouver" lat="49.025299072265625" lon="-122.36100006103516" matricula="YXX" nombreCorto="Abbotsford" nombreLargo="Abbotsford Airport" pais="Canada"/>
    <aeropuerto area="America/Vancouver" lat="60.7095985413" lon="-135.067001343" matricula="YXY" nombreCorto="Whitehorse" nombreLargo="Whitehorse / Erik Nielsen International Airport" pais="Canada"/>
    <aeropuerto area="America/Toronto" lat="46.36360168457031" lon="-79.42279815673828" matricula="YYB" nombreCorto="North Bay" nombreLargo="North Bay Airport" pais="Canada"/>
    <aeropuerto area="America/Edmonton" lat="51.113899231" lon="-114.019996643" matricula="YYC" nombreCorto="Calgary" nombreLargo="Calgary International Airport" pais="Canada"/>
    <aeropuerto area="America/Vancouver" lat="54.82469940185547" lon="-127.18299865722656" matricula="YYD" nombreCorto="Smithers" nombreLargo="Smithers Airport" pais="Canada"/>
    <aeropuerto area="America/Vancouver" lat="58.8363990784" lon="-122.597000122" matricula="YYE" nombreCorto="Fort Nelson" nombreLargo="Fort Nelson Airport" pais="Canada"/>
    <aeropuerto area="America/Vancouver" lat="49.46310043334961" lon="-119.60199737548828" matricula="YYF" nombreCorto="Penticton" nombreLargo="Penticton Airport" pais="Canada"/>
    <aeropuerto area="America/Halifax" lat="46.290000915527344" lon="-63.12110137939453" matricula="YYG" nombreCorto="Charlottetown" nombreLargo="Charlottetown Airport" pais="Canada"/>
    <aeropuerto area="America/Edmonton" lat="69.5466995239" lon="-93.5766983032" matricula="YYH" nombreCorto="Spence Bay" nombreLargo="Taloyoak Airport" pais="Canada"/>
    <aeropuerto area="America/Vancouver" lat="48.646900177" lon="-123.426002502" matricula="YYJ" nombreCorto="Victoria" nombreLargo="Victoria International Airport" pais="Canada"/>
    <aeropuerto area="America/Winnipeg" lat="56.86389923095703" lon="-101.07599639892578" matricula="YYL" nombreCorto="Lynn Lake" nombreLargo="Lynn Lake Airport" pais="Canada"/>
    <aeropuerto area="America/Regina" lat="50.291900634799994" lon="-107.691001892" matricula="YYN" nombreCorto="Swift Current" nombreLargo="Swift Current Airport" pais="Canada"/>
    <aeropuerto area="America/Winnipeg" lat="58.739200592041016" lon="-94.06500244140625" matricula="YYQ" nombreCorto="Churchill" nombreLargo="Churchill Airport" pais="Canada"/>
    <aeropuerto area="America/Halifax" lat="53.3191986084" lon="-60.4258003235" matricula="YYR" nombreCorto="Goose Bay" nombreLargo="Goose Bay Airport" pais="Canada"/>
    <aeropuerto area="America/St_Johns" lat="47.618598938" lon="-52.7518997192" matricula="YYT" nombreCorto="St. John's" nombreLargo="St. John's International Airport" pais="Canada"/>
    <aeropuerto area="America/Toronto" lat="49.41389846801758" lon="-82.46749877929688" matricula="YYU" nombreCorto="Kapuskasing" nombreLargo="Kapuskasing Airport" pais="Canada"/>
    <aeropuerto area="America/Toronto" lat="50.29029846191406" lon="-88.90969848632812" matricula="YYW" nombreCorto="Armstrong" nombreLargo="Armstrong Airport" pais="Canada"/>
    <aeropuerto area="America/Toronto" lat="48.60860061645508" lon="-68.20809936523438" matricula="YYY" nombreCorto="Mont Joli" nombreLargo="Mont Joli Airport" pais="Canada"/>
    <aeropuerto area="America/Toronto" lat="43.6772003174" lon="-79.63059997559999" matricula="YYZ" nombreCorto="Toronto" nombreLargo="Lester B. Pearson International Airport" pais="Canada"/>
    <aeropuerto area="America/Toronto" lat="43.74250030517578" lon="-79.4655990600586" matricula="YZD" nombreCorto="Toronto" nombreLargo="Downsview Airport" pais="Canada"/>
    <aeropuerto area="America/Toronto" lat="45.88529968261719" lon="-82.56780242919922" matricula="YZE" nombreCorto="Gore Bay" nombreLargo="Gore Bay Manitoulin Airport" pais="Canada"/>
    <aeropuerto area="America/Edmonton" lat="62.462799072265625" lon="-114.44000244140625" matricula="YZF" nombreCorto="Yellowknife" nombreLargo="Yellowknife Airport" pais="Canada"/>
    <aeropuerto area="America/Edmonton" lat="55.2930984497" lon="-114.777000427" matricula="YZH" nombreCorto="Slave Lake" nombreLargo="Slave Lake Airport" pais="Canada"/>
    <aeropuerto area="America/Vancouver" lat="53.25429916379999" lon="-131.813995361" matricula="YZP" nombreCorto="Sandspit" nombreLargo="Sandspit Airport" pais="Canada"/>
    <aeropuerto area="America/Toronto" lat="42.9994010925293" lon="-82.30889892578125" matricula="YZR" nombreCorto="Sarnia" nombreLargo="Chris Hadfield Airport" pais="Canada"/>
    <aeropuerto area="America/Vancouver" lat="50.680599212646484" lon="-127.36699676513672" matricula="YZT" nombreCorto="Port Hardy" nombreLargo="Port Hardy Airport" pais="Canada"/>
    <aeropuerto area="America/Edmonton" lat="54.14390182495117" lon="-115.78700256347656" matricula="YZU" nombreCorto="Whitecourt" nombreLargo="Whitecourt Airport" pais="Canada"/>
    <aeropuerto area="America/Toronto" lat="50.22330093383789" lon="-66.2656021118164" matricula="YZV" nombreCorto="Sept-iles" nombreLargo="Sept-Îles Airport" pais="Canada"/>
    <aeropuerto area="America/Vancouver" lat="60.17279815673828" lon="-132.7429962158203" matricula="YZW" nombreCorto="Teslin" nombreLargo="Teslin Airport" pais="Canada"/>
    <aeropuerto area="America/Halifax" lat="44.98440170288086" lon="-64.91690063476562" matricula="YZX" nombreCorto="Greenwood" nombreLargo="CFB Greenwood" pais="Canada"/>
    <aeropuerto area="America/Vancouver" lat="62.20750045776367" lon="-133.37600708007812" matricula="ZFA" nombreCorto="Faro" nombreLargo="Faro Airport" pais="Canada"/>
    <aeropuerto area="America/Edmonton" lat="67.40750122070312" lon="-134.86099243164062" matricula="ZFM" nombreCorto="Fort Mcpherson" nombreLargo="Fort Mcpherson Airport" pais="Canada"/>
    <aeropuerto area="Africa/Algiers" lat="36.50360107421875" lon="2.8141698837280273" matricula="\N" nombreCorto="Blida" nombreLargo="Blida Airport" pais="Algeria"/>
    <aeropuerto area="Africa/Algiers" lat="35.33250045776367" lon="4.206389904022217" matricula="\N" nombreCorto="Bou Saada" nombreLargo="Bou Saada Airport" pais="Algeria"/>
    <aeropuerto area="Africa/Algiers" lat="36.7120018005" lon="5.0699200630200005" matricula="BJA" nombreCorto="Bejaja" nombreLargo="Soummam Airport" pais="Algeria"/>
    <aeropuerto area="Africa/Algiers" lat="36.691001892089844" lon="3.215409994125366" matricula="ALG" nombreCorto="Algier" nombreLargo="Houari Boumediene Airport" pais="Algeria"/>
    <aeropuerto area="Africa/Algiers" lat="24.292800903299998" lon="9.45244026184" matricula="DJG" nombreCorto="Djanet" nombreLargo="Djanet Inedbirene Airport" pais="Algeria"/>
    <aeropuerto area="Africa/Algiers" lat="36.545799" lon="2.87611" matricula="QFD" nombreCorto="Boufarik" nombreLargo="Boufarik Airport" pais="Algeria"/>
    <aeropuerto area="Africa/Algiers" lat="26.710100173950195" lon="0.2856470048427582" matricula="\N" nombreCorto="Reggan" nombreLargo="Reggane Airport" pais="Algeria"/>
    <aeropuerto area="Africa/Algiers" lat="26.7234992981" lon="8.62265014648" matricula="VVZ" nombreCorto="Illizi" nombreLargo="Illizi Takhamalt Airport" pais="Algeria"/>
    <aeropuerto area="Africa/Algiers" lat="35.52539825439453" lon="2.8787100315093994" matricula="\N" nombreCorto="Ain Oussera" nombreLargo="Ain Oussera Airport" pais="Algeria"/>
    <aeropuerto area="Africa/Algiers" lat="22.8115005493" lon="5.45107984543" matricula="TMR" nombreCorto="Tamanrasset" nombreLargo="Aguenar – Hadj Bey Akhamok Airport" pais="Algeria"/>
    <aeropuerto area="Africa/Algiers" lat="36.7951011658" lon="5.87361001968" matricula="GJL" nombreCorto="Jijel" nombreLargo="Jijel Ferhat Abbas Airport" pais="Algeria"/>
    <aeropuerto area="Africa/Algiers" lat="33.535900116" lon="-0.242353007197" matricula="\N" nombreCorto="Mecheria" nombreLargo="Mecheria Airport" pais="Algeria"/>
    <aeropuerto area="Africa/Algiers" lat="35.752201080322266" lon="0.6262720227241516" matricula="\N" nombreCorto="Relizane" nombreLargo="Relizane Airport" pais="Algeria"/>
    <aeropuerto area="Africa/Algiers" lat="36.822200775146484" lon="7.809169769287109" matricula="AAE" nombreCorto="Annaba" nombreLargo="Annaba Airport" pais="Algeria"/>
    <aeropuerto area="Africa/Algiers" lat="36.2760009765625" lon="6.620389938354492" matricula="CZL" nombreCorto="Constantine" nombreLargo="Mohamed Boudiaf International Airport" pais="Algeria"/>
    <aeropuerto area="Africa/Algiers" lat="35.4315986633" lon="8.12071990967" matricula="TEE" nombreCorto="Tebessa" nombreLargo="Cheikh Larbi Tébessi Airport" pais="Algeria"/>
    <aeropuerto area="Africa/Algiers" lat="32.93040084838867" lon="3.311539888381958" matricula="HRM" nombreCorto="Tilrempt" nombreLargo="Hassi R'Mel Airport" pais="Algeria"/>
    <aeropuerto area="Africa/Algiers" lat="35.3410987854" lon="1.46315002441" matricula="TID" nombreCorto="Tiaret" nombreLargo="Bou Chekif Airport" pais="Algeria"/>
    <aeropuerto area="Africa/Algiers" lat="35.73540115356445" lon="-0.8053889870643616" matricula="\N" nombreCorto="Bou Sfer" nombreLargo="Bou Sfer Airport" pais="Algeria"/>
    <aeropuerto area="Africa/Algiers" lat="27.7003993988" lon="-8.167099952700001" matricula="TIN" nombreCorto="Tindouf" nombreLargo="Tindouf Airport" pais="Algeria"/>
    <aeropuerto area="Africa/Algiers" lat="36.2126998901" lon="1.33176994324" matricula="QAS" nombreCorto="Ech-cheliff" nombreLargo="Ech Cheliff Airport" pais="Algeria"/>
    <aeropuerto area="Africa/Algiers" lat="35.54240036010742" lon="-0.5322780013084412" matricula="TAF" nombreCorto="Oran" nombreLargo="Tafaraoui Airport" pais="Algeria"/>
    <aeropuerto area="Africa/Algiers" lat="35.0167007446" lon="-1.45000004768" matricula="TLM" nombreCorto="Tlemcen" nombreLargo="Zenata – Messali El Hadj Airport" pais="Algeria"/>
    <aeropuerto area="Africa/Algiers" lat="35.6239013672" lon="-0.6211829781529999" matricula="ORN" nombreCorto="Oran" nombreLargo="Es Senia Airport" pais="Algeria"/>
    <aeropuerto area="Africa/Algiers" lat="35.1717987061" lon="-0.593275010586" matricula="\N" nombreCorto="Sidi Bel Abbes" nombreLargo="Sidi Bel Abbes Airport" pais="Algeria"/>
    <aeropuerto area="Africa/Algiers" lat="35.207698822021484" lon="0.14714199304580688" matricula="MUW" nombreCorto="Ghriss" nombreLargo="Ghriss Airport" pais="Algeria"/>
    <aeropuerto area="Africa/Algiers" lat="27.837600708007812" lon="-0.18641400337219238" matricula="AZR" nombreCorto="Adrar" nombreLargo="Touat Cheikh Sidi Mohamed Belkebir Airport" pais="Algeria"/>
    <aeropuerto area="Africa/Algiers" lat="34.793300628699996" lon="5.73823022842" matricula="BSK" nombreCorto="Biskra" nombreLargo="Biskra Airport" pais="Algeria"/>
    <aeropuerto area="Africa/Algiers" lat="30.571300506591797" lon="2.8595900535583496" matricula="ELG" nombreCorto="El Golea" nombreLargo="El Golea Airport" pais="Algeria"/>
    <aeropuerto area="Africa/Algiers" lat="32.38410186767578" lon="3.794110059738159" matricula="GHA" nombreCorto="Ghardaia" nombreLargo="Noumérat - Moufdi Zakaria Airport" pais="Algeria"/>
    <aeropuerto area="Africa/Algiers" lat="31.673000335699996" lon="6.140439987180001" matricula="HME" nombreCorto="Hassi Messaoud" nombreLargo="Oued Irara Airport" pais="Algeria"/>
    <aeropuerto area="Africa/Algiers" lat="27.250999450699997" lon="2.51202011108" matricula="INZ" nombreCorto="In Salah" nombreLargo="In Salah Airport" pais="Algeria"/>
    <aeropuerto area="Africa/Algiers" lat="33.06779861450195" lon="6.088669776916504" matricula="TGR" nombreCorto="Touggourt" nombreLargo="Touggourt Sidi Madhi Airport" pais="Algeria"/>
    <aeropuerto area="Africa/Algiers" lat="33.764400482199996" lon="2.92833995819" matricula="LOO" nombreCorto="Laghouat" nombreLargo="Laghouat Airport" pais="Algeria"/>
    <aeropuerto area="Africa/Algiers" lat="29.2371006012" lon="0.276033014059" matricula="TMX" nombreCorto="Timimoun" nombreLargo="Timimoun Airport" pais="Algeria"/>
    <aeropuerto area="Africa/Algiers" lat="31.917200088500977" lon="5.412779808044434" matricula="OGX" nombreCorto="Ouargla" nombreLargo="Ain el Beida Airport" pais="Algeria"/>
    <aeropuerto area="Africa/Algiers" lat="28.0515003204" lon="9.64291000366" matricula="IAM" nombreCorto="Zarzaitine" nombreLargo="In Aménas Airport" pais="Algeria"/>
    <aeropuerto area="Africa/Porto-Novo" lat="6.357230186462402" lon="2.384350061416626" matricula="COO" nombreCorto="Cotonou" nombreLargo="Cadjehoun Airport" pais="Benin"/>
    <aeropuerto area="Africa/Ouagadougou" lat="12.35319995880127" lon="-1.5124200582504272" matricula="OUA" nombreCorto="Ouagadougou" nombreLargo="Ouagadougou Airport" pais="Burkina Faso"/>
    <aeropuerto area="Africa/Ouagadougou" lat="11.160099983215332" lon="-4.33096981048584" matricula="BOY" nombreCorto="Bobo-dioulasso" nombreLargo="Bobo Dioulasso Airport" pais="Burkina Faso"/>
    <aeropuerto area="Africa/Accra" lat="5.605189800262451" lon="-0.16678600013256073" matricula="ACC" nombreCorto="Accra" nombreLargo="Kotoka International Airport" pais="Ghana"/>
    <aeropuerto area="Africa/Accra" lat="9.55718994140625" lon="-0.8632140159606934" matricula="TML" nombreCorto="Tamale" nombreLargo="Tamale Airport" pais="Ghana"/>
    <aeropuerto area="Africa/Accra" lat="10.0826997756958" lon="-2.507689952850342" matricula="\N" nombreCorto="Wa" nombreLargo="Wa Airport" pais="Ghana"/>
    <aeropuerto area="Africa/Accra" lat="7.361830234527588" lon="-2.3287599086761475" matricula="NYI" nombreCorto="Sunyani" nombreLargo="Sunyani Airport" pais="Ghana"/>
    <aeropuerto area="Africa/Accra" lat="4.896059989929199" lon="-1.7747600078582764" matricula="TKD" nombreCorto="Takoradi" nombreLargo="Takoradi Airport" pais="Ghana"/>
    <aeropuerto area="Africa/Abidjan" lat="5.261390209197998" lon="-3.9262900352478027" matricula="ABJ" nombreCorto="Abidjan" nombreLargo="Port Bouet Airport" pais="Cote d'Ivoire"/>
    <aeropuerto area="Africa/Abidjan" lat="7.738800048828125" lon="-5.073669910430908" matricula="BYK" nombreCorto="Bouake" nombreLargo="Bouaké Airport" pais="Cote d'Ivoire"/>
    <aeropuerto area="Africa/Abidjan" lat="6.792809963226318" lon="-6.473189830780029" matricula="DJO" nombreCorto="Daloa" nombreLargo="Daloa Airport" pais="Cote d'Ivoire"/>
    <aeropuerto area="Africa/Abidjan" lat="9.38718032837" lon="-5.55666017532" matricula="HGO" nombreCorto="Korhogo" nombreLargo="Korhogo Airport" pais="Cote d'Ivoire"/>
    <aeropuerto area="Africa/Abidjan" lat="7.272069931030273" lon="-7.58735990524292" matricula="MJC" nombreCorto="Man" nombreLargo="Man Airport" pais="Cote d'Ivoire"/>
    <aeropuerto area="Africa/Abidjan" lat="4.746719837188721" lon="-6.660820007324219" matricula="SPY" nombreCorto="San Pedro" nombreLargo="San Pedro Airport" pais="Cote d'Ivoire"/>
    <aeropuerto area="Africa/Abidjan" lat="6.9031701088" lon="-5.36558008194" matricula="ASK" nombreCorto="Yamoussoukro" nombreLargo="Yamoussoukro Airport" pais="Cote d'Ivoire"/>
    <aeropuerto area="Africa/Lagos" lat="9.006790161132812" lon="7.263169765472412" matricula="ABV" nombreCorto="Abuja" nombreLargo="Nnamdi Azikiwe International Airport" pais="Nigeria"/>
    <aeropuerto area="Africa/Lagos" lat="7.246739864349365" lon="5.3010101318359375" matricula="AKR" nombreCorto="Akure" nombreLargo="Akure Airport" pais="Nigeria"/>
    <aeropuerto area="Africa/Lagos" lat="6.316979885101318" lon="5.5995001792907715" matricula="BNI" nombreCorto="Benin" nombreLargo="Benin Airport" pais="Nigeria"/>
    <aeropuerto area="Africa/Lagos" lat="4.976019859313965" lon="8.347200393676758" matricula="CBQ" nombreCorto="Calabar" nombreLargo="Margaret Ekpo International Airport" pais="Nigeria"/>
    <aeropuerto area="Africa/Lagos" lat="6.474269866943359" lon="7.561960220336914" matricula="ENU" nombreCorto="Enugu" nombreLargo="Akanu Ibiam International Airport" pais="Nigeria"/>
    <aeropuerto area="Africa/Lagos" lat="12.171699523925781" lon="6.696109771728516" matricula="QUS" nombreCorto="Gusau" nombreLargo="Gusau Airport" pais="Nigeria"/>
    <aeropuerto area="Africa/Lagos" lat="7.362460136413574" lon="3.97832989692688" matricula="IBA" nombreCorto="Ibadan" nombreLargo="Ibadan Airport" pais="Nigeria"/>
    <aeropuerto area="Africa/Lagos" lat="8.440210342407227" lon="4.493919849395752" matricula="ILR" nombreCorto="Ilorin" nombreLargo="Ilorin International Airport" pais="Nigeria"/>
    <aeropuerto area="Africa/Lagos" lat="9.639829635620117" lon="8.869050025939941" matricula="JOS" nombreCorto="Jos" nombreLargo="Yakubu Gowon Airport" pais="Nigeria"/>
    <aeropuerto area="Africa/Lagos" lat="10.696000099182129" lon="7.320109844207764" matricula="KAD" nombreCorto="Kaduna" nombreLargo="Kaduna Airport" pais="Nigeria"/>
    <aeropuerto area="Africa/Lagos" lat="12.047599792480469" lon="8.524620056152344" matricula="KAN" nombreCorto="Kano" nombreLargo="Mallam Aminu International Airport" pais="Nigeria"/>
    <aeropuerto area="Africa/Lagos" lat="11.855299949645996" lon="13.080900192260742" matricula="MIU" nombreCorto="Maiduguri" nombreLargo="Maiduguri International Airport" pais="Nigeria"/>
    <aeropuerto area="Africa/Lagos" lat="7.7038798332214355" lon="8.613940238952637" matricula="MDI" nombreCorto="Makurdi" nombreLargo="Makurdi Airport" pais="Nigeria"/>
    <aeropuerto area="Africa/Lagos" lat="6.5773701667785645" lon="3.321160078048706" matricula="LOS" nombreCorto="Lagos" nombreLargo="Murtala Muhammed International Airport" pais="Nigeria"/>
    <aeropuerto area="Africa/Lagos" lat="9.652170181274414" lon="6.462259769439697" matricula="MXJ" nombreCorto="Minna" nombreLargo="Minna Airport" pais="Nigeria"/>
    <aeropuerto area="Africa/Lagos" lat="5.0154900550842285" lon="6.94959020614624" matricula="PHC" nombreCorto="Port Hartcourt" nombreLargo="Port Harcourt International Airport" pais="Nigeria"/>
    <aeropuerto area="Africa/Lagos" lat="12.916299819946289" lon="5.207190036773682" matricula="SKO" nombreCorto="Sokoto" nombreLargo="Sadiq Abubakar III International Airport" pais="Nigeria"/>
    <aeropuerto area="Africa/Lagos" lat="9.257550239562988" lon="12.430399894714355" matricula="YOL" nombreCorto="Yola" nombreLargo="Yola Airport" pais="Nigeria"/>
    <aeropuerto area="Africa/Lagos" lat="11.130200386047363" lon="7.685810089111328" matricula="ZAR" nombreCorto="Zaria" nombreLargo="Zaria Airport" pais="Nigeria"/>
    <aeropuerto area="Africa/Niamey" lat="13.5024995803833" lon="7.1267499923706055" matricula="MFQ" nombreCorto="Maradi" nombreLargo="Maradi Airport" pais="Niger"/>
    <aeropuerto area="Africa/Niamey" lat="13.481499671936035" lon="2.183609962463379" matricula="NIM" nombreCorto="Niamey" nombreLargo="Diori Hamani International Airport" pais="Niger"/>
    <aeropuerto area="Africa/Niamey" lat="14.875699996948242" lon="5.265359878540039" matricula="THZ" nombreCorto="Tahoua" nombreLargo="Tahoua Airport" pais="Niger"/>
    <aeropuerto area="Africa/Niamey" lat="16.965999603271484" lon="8.000109672546387" matricula="AJY" nombreCorto="Agadez" nombreLargo="Mano Dayak International Airport" pais="Niger"/>
    <aeropuerto area="Africa/Niamey" lat="18.968700408935547" lon="12.86870002746582" matricula="\N" nombreCorto="Dirkou" nombreLargo="Dirkou Airport" pais="Niger"/>
    <aeropuerto area="Africa/Niamey" lat="13.372900009155273" lon="12.626700401306152" matricula="\N" nombreCorto="Diffa" nombreLargo="Diffa Airport" pais="Niger"/>
    <aeropuerto area="Africa/Niamey" lat="13.779000282287598" lon="8.983759880065918" matricula="ZND" nombreCorto="Zinder" nombreLargo="Zinder Airport" pais="Niger"/>
    <aeropuerto area="Africa/Tunis" lat="35.75809860229492" lon="10.75469970703125" matricula="MIR" nombreCorto="Monastir" nombreLargo="Monastir Habib Bourguiba International Airport" pais="Tunisia"/>
    <aeropuerto area="Africa/Tunis" lat="36.85100173950195" lon="10.22719955444336" matricula="TUN" nombreCorto="Tunis" nombreLargo="Tunis Carthage International Airport" pais="Tunisia"/>
    <aeropuerto area="Africa/Tunis" lat="37.2453994751" lon="9.79144954681" matricula="\N" nombreCorto="Bizerte" nombreLargo="Sidi Ahmed Air Base" pais="Tunisia"/>
    <aeropuerto area="Africa/Tunis" lat="32.30619812011719" lon="10.382100105285645" matricula="\N" nombreCorto="Remada" nombreLargo="Remada Air Base" pais="Tunisia"/>
    <aeropuerto area="Africa/Tunis" lat="34.422000885009766" lon="8.822500228881836" matricula="GAF" nombreCorto="Gafsa" nombreLargo="Gafsa Ksar International Airport" pais="Tunisia"/>
    <aeropuerto area="Africa/Tunis" lat="33.87689971923828" lon="10.103300094604492" matricula="GAE" nombreCorto="Gabes" nombreLargo="Gabès Matmata International Airport" pais="Tunisia"/>
    <aeropuerto area="Africa/Tunis" lat="36.72129821777344" lon="9.94314956665039" matricula="\N" nombreCorto="Bordj El Amri" nombreLargo="Borj El Amri Airport" pais="Tunisia"/>
    <aeropuerto area="Africa/Tunis" lat="33.875" lon="10.775500297546387" matricula="DJE" nombreCorto="Djerba" nombreLargo="Djerba Zarzis International Airport" pais="Tunisia"/>
    <aeropuerto area="Africa/Tunis" lat="31.704299926757812" lon="9.254619598388672" matricula="EBM" nombreCorto="El Borma" nombreLargo="El Borma Airport" pais="Tunisia"/>
    <aeropuerto area="Africa/Tunis" lat="34.71799850463867" lon="10.690999984741211" matricula="SFA" nombreCorto="Sfax" nombreLargo="Sfax Thyna International Airport" pais="Tunisia"/>
    <aeropuerto area="Africa/Tunis" lat="33.939701080322266" lon="8.110560417175293" matricula="TOE" nombreCorto="Tozeur" nombreLargo="Tozeur Nefta International Airport" pais="Tunisia"/>
    <aeropuerto area="Africa/Lome" lat="9.767330169677734" lon="1.091249942779541" matricula="LRL" nombreCorto="Niatougou" nombreLargo="Niamtougou International Airport" pais="Togo"/>
    <aeropuerto area="Africa/Lome" lat="6.165609836578369" lon="1.2545100450515747" matricula="LFW" nombreCorto="Lome" nombreLargo="Lomé-Tokoin Airport" pais="Togo"/>
    <aeropuerto area="Europe/Brussels" lat="51.1893997192" lon="4.46027994156" matricula="ANR" nombreCorto="Antwerp" nombreLargo="Antwerp International Airport (Deurne)" pais="Belgium"/>
    <aeropuerto area="Europe/Brussels" lat="50.75859832763672" lon="4.768330097198486" matricula="\N" nombreCorto="Beauvechain" nombreLargo="Beauvechain Air Base" pais="Belgium"/>
    <aeropuerto area="Europe/Brussels" lat="51.168301" lon="5.47" matricula="\N" nombreCorto="Kleine Brogel" nombreLargo="Kleine Brogel Air Base" pais="Belgium"/>
    <aeropuerto area="Europe/Brussels" lat="50.901401519800004" lon="4.48443984985" matricula="BRU" nombreCorto="Brussels" nombreLargo="Brussels Airport" pais="Belgium"/>
    <aeropuerto area="Europe/Brussels" lat="49.891700744628906" lon="5.2238898277282715" matricula="\N" nombreCorto="Bertrix" nombreLargo="Jehonville Air Base" pais="Belgium"/>
    <aeropuerto area="Europe/Brussels" lat="50.459201812699995" lon="4.45382022858" matricula="CRL" nombreCorto="Charleroi" nombreLargo="Brussels South Charleroi Airport" pais="Belgium"/>
    <aeropuerto area="Europe/Brussels" lat="50.575801849365234" lon="3.8310000896453857" matricula="\N" nombreCorto="Chievres" nombreLargo="Chièvres Air Base" pais="Belgium"/>
    <aeropuerto area="Europe/Brussels" lat="51.090301513671875" lon="2.652780055999756" matricula="\N" nombreCorto="Koksijde" nombreLargo="Koksijde Air Base" pais="Belgium"/>
    <aeropuerto area="Europe/Brussels" lat="50.2433013916" lon="4.64583015442" matricula="\N" nombreCorto="Florennes" nombreLargo="Florennes Air Base" pais="Belgium"/>
    <aeropuerto area="Europe/Brussels" lat="50.817199707" lon="3.20472002029" matricula="QKT" nombreCorto="Kortrijk-vevelgem" nombreLargo="Wevelgem Airport" pais="Belgium"/>
    <aeropuerto area="Europe/Brussels" lat="50.63740158081055" lon="5.443220138549805" matricula="LGG" nombreCorto="Liege" nombreLargo="Liège Airport" pais="Belgium"/>
    <aeropuerto area="Europe/Brussels" lat="51.198898315399994" lon="2.8622200489" matricula="OST" nombreCorto="Ostend" nombreLargo="Ostend-Bruges International Airport" pais="Belgium"/>
    <aeropuerto area="Europe/Brussels" lat="50.9474983215332" lon="5.590559959411621" matricula="\N" nombreCorto="Zutendaal" nombreLargo="Zutendaal Air Base" pais="Belgium"/>
    <aeropuerto area="Europe/Brussels" lat="50.791900634799994" lon="5.20167016983" matricula="\N" nombreCorto="Sint-truiden" nombreLargo="Limburg Regional Airport" pais="Belgium"/>
    <aeropuerto area="Europe/Brussels" lat="50.034400939941406" lon="5.440810203552246" matricula="\N" nombreCorto="St.-hubert" nombreLargo="Saint Hubert Air Base" pais="Belgium"/>
    <aeropuerto area="Europe/Brussels" lat="51.14419937133789" lon="3.475559949874878" matricula="\N" nombreCorto="Ursel" nombreLargo="Ursel Air Base" pais="Belgium"/>
    <aeropuerto area="Europe/Brussels" lat="51.394798278808594" lon="4.9601898193359375" matricula="\N" nombreCorto="Weelde" nombreLargo="Weelde Air Base" pais="Belgium"/>
    <aeropuerto area="Europe/Brussels" lat="51.264702" lon="4.75333" matricula="\N" nombreCorto="Zoersel" nombreLargo="Oostmalle Air Base" pais="Belgium"/>
    <aeropuerto area="Europe/Berlin" lat="51.19361114501953" lon="14.519721984863281" matricula="\N" nombreCorto="Bautzen" nombreLargo="Bautzen Airport" pais="Germany"/>
    <aeropuerto area="Europe/Berlin" lat="50.9819450378418" lon="12.506388664245605" matricula="AOC" nombreCorto="Altenburg" nombreLargo="Altenburg-Nobitz Airport" pais="Germany"/>
    <aeropuerto area="Europe/Berlin" lat="51.831693541" lon="12.1909618378" matricula="\N" nombreCorto="Dessau" nombreLargo="Dessau Airport" pais="Germany"/>
    <aeropuerto area="Europe/Berlin" lat="52.195856" lon="14.58753" matricula="\N" nombreCorto="Eisenhuettenstadt" nombreLargo="Eisenhüttenstadt Airport" pais="Germany"/>
    <aeropuerto area="Europe/Berlin" lat="51.30805587768555" lon="13.555556297302246" matricula="\N" nombreCorto="Suhl" nombreLargo="Großenhain Airport" pais="Germany"/>
    <aeropuerto area="Europe/Berlin" lat="51.3630556" lon="11.9408333" matricula="\N" nombreCorto="Muehlhausen" nombreLargo="Merseburg Airport" pais="Germany"/>
    <aeropuerto area="Europe/Berlin" lat="51.552223" lon="12.053889" matricula="\N" nombreCorto="Halle" nombreLargo="Halle-Oppin Airport" pais="Germany"/>
    <aeropuerto area="Europe/Berlin" lat="51.2936096191" lon="13.3561105728" matricula="\N" nombreCorto="Riesa" nombreLargo="Riesa-Göhlis Airport" pais="Germany"/>
    <aeropuerto area="Europe/Berlin" lat="53.306388855" lon="12.7522220612" matricula="\N" nombreCorto="Rechlin-laerz" nombreLargo="Rechlin-Lärz Airport" pais="Germany"/>
    <aeropuerto area="Europe/Berlin" lat="52.5805549621582" lon="13.916666984558105" matricula="\N" nombreCorto="Strausberg" nombreLargo="Strausberg Airport" pais="Germany"/>
    <aeropuerto area="Europe/Berlin" lat="52.2036094666" lon="13.1563892365" matricula="\N" nombreCorto="Schoenhagen" nombreLargo="Schönhagen Airport" pais="Germany"/>
    <aeropuerto area="Europe/Berlin" lat="54.338253" lon="12.710515" matricula="BBH" nombreCorto="Barth" nombreLargo="Barth Airport" pais="Germany"/>
    <aeropuerto area="Europe/Berlin" lat="50.915279388427734" lon="11.714444160461426" matricula="\N" nombreCorto="Jena" nombreLargo="Jena-Schöngleina Airport" pais="Germany"/>
    <aeropuerto area="Europe/Berlin" lat="52.918888092041016" lon="12.425277709960938" matricula="\N" nombreCorto="Kyritz" nombreLargo="Kyritz Airport" pais="Germany"/>
    <aeropuerto area="Europe/Berlin" lat="52.073612" lon="11.626389" matricula="\N" nombreCorto="Magdeburg" nombreLargo="Magdeburg \City\ Airport" pais="Germany"/>
    <aeropuerto area="Europe/Berlin" lat="51.36333465576172" lon="14.949999809265137" matricula="\N" nombreCorto="Rothenburg/ol" nombreLargo="Rothenburg/Görlitz Airport" pais="Germany"/>
    <aeropuerto area="Europe/Berlin" lat="53.83277893066406" lon="13.668610572814941" matricula="\N" nombreCorto="Anklam" nombreLargo="Anklam Airport" pais="Germany"/>
    <aeropuerto area="Europe/Berlin" lat="51.889442" lon="14.531944" matricula="\N" nombreCorto="Cottbus" nombreLargo="Cottbus-Drewitz Airport" pais="Germany"/>
    <aeropuerto area="Europe/Berlin" lat="51.29694366455078" lon="14.1274995803833" matricula="\N" nombreCorto="Kamenz" nombreLargo="Kamenz Airport" pais="Germany"/>
    <aeropuerto area="Europe/Berlin" lat="52.380001068115" lon="13.522500038147" matricula="SXF" nombreCorto="Berlin" nombreLargo="Berlin-Schönefeld International Airport" pais="Germany"/>
    <aeropuerto area="Europe/Berlin" lat="51.1328010559082" lon="13.767200469970703" matricula="DRS" nombreCorto="Dresden" nombreLargo="Dresden Airport" pais="Germany"/>
    <aeropuerto area="Europe/Berlin" lat="50.979801177978516" lon="10.958100318908691" matricula="ERF" nombreCorto="Erfurt" nombreLargo="Erfurt Airport" pais="Germany"/>
    <aeropuerto area="Europe/Berlin" lat="50.0333333" lon="8.5705556" matricula="FRA" nombreCorto="Frankfurt" nombreLargo="Frankfurt am Main International Airport" pais="Germany"/>
    <aeropuerto area="Europe/Berlin" lat="52.134601593" lon="7.68483018875" matricula="FMO" nombreCorto="Munster" nombreLargo="Münster Osnabrück Airport" pais="Germany"/>
    <aeropuerto area="Europe/Berlin" lat="53.630401611328" lon="9.9882297515869" matricula="HAM" nombreCorto="Hamburg" nombreLargo="Hamburg Airport" pais="Germany"/>
    <aeropuerto area="Europe/Berlin" lat="52.472999572753906" lon="13.403900146484375" matricula="THF" nombreCorto="Berlin" nombreLargo="Berlin-Tempelhof International Airport" pais="Germany"/>
    <aeropuerto area="Europe/Berlin" lat="50.8658981323" lon="7.1427397728" matricula="CGN" nombreCorto="Cologne" nombreLargo="Cologne Bonn Airport" pais="Germany"/>
    <aeropuerto area="Europe/Berlin" lat="51.28950119018555" lon="6.766779899597168" matricula="DUS" nombreCorto="Duesseldorf" nombreLargo="Düsseldorf International Airport" pais="Germany"/>
    <aeropuerto area="Europe/Berlin" lat="48.353801727295" lon="11.786100387573" matricula="MUC" nombreCorto="Munich" nombreLargo="Munich International Airport" pais="Germany"/>
    <aeropuerto area="Europe/Berlin" lat="49.498699" lon="11.0780556" matricula="NUE" nombreCorto="Nuernberg" nombreLargo="Nuremberg Airport" pais="Germany"/>
    <aeropuerto area="Europe/Berlin" lat="51.4238889" lon="12.2363889" matricula="LEJ" nombreCorto="Leipzig" nombreLargo="Leipzig Halle Airport" pais="Germany"/>
    <aeropuerto area="Europe/Berlin" lat="49.214599609400004" lon="7.10950994492" matricula="SCN" nombreCorto="Saarbruecken" nombreLargo="Saarbrücken Airport" pais="Germany"/>
    <aeropuerto area="Europe/Berlin" lat="48.689899444599995" lon="9.22196006775" matricula="STR" nombreCorto="Stuttgart" nombreLargo="Stuttgart Airport" pais="Germany"/>
    <aeropuerto area="Europe/Berlin" lat="52.5597000122" lon="13.2876996994" matricula="TXL" nombreCorto="Berlin" nombreLargo="Berlin-Tegel International Airport" pais="Germany"/>
    <aeropuerto area="Europe/Berlin" lat="52.461101532" lon="9.685079574580001" matricula="HAJ" nombreCorto="Hannover" nombreLargo="Hannover Airport" pais="Germany"/>
    <aeropuerto area="Europe/Berlin" lat="53.0475006104" lon="8.78666973114" matricula="BRE" nombreCorto="Bremen" nombreLargo="Bremen Airport" pais="Germany"/>
    <aeropuerto area="Europe/Berlin" lat="49.959999084472656" lon="8.645833015441895" matricula="QEF" nombreCorto="Egelsbach" nombreLargo="Frankfurt-Egelsbach Airport" pais="Germany"/>
    <aeropuerto area="Europe/Berlin" lat="49.948699951200005" lon="7.263889789579999" matricula="HHN" nombreCorto="Hahn" nombreLargo="Frankfurt-Hahn Airport" pais="Germany"/>
    <aeropuerto area="Europe/Berlin" lat="49.47305679321289" lon="8.514166831970215" matricula="MHG" nombreCorto="Mannheim" nombreLargo="Mannheim-City Airport" pais="Germany"/>
    <aeropuerto area="Europe/Berlin" lat="51.03499984741211" lon="8.680832862854004" matricula="\N" nombreCorto="Allendorf" nombreLargo="Allendorf/Eder Airport" pais="Germany"/>
    <aeropuerto area="Europe/Berlin" lat="49.606945" lon="8.368333" matricula="\N" nombreCorto="Worms" nombreLargo="Worms Airport" pais="Germany"/>
    <aeropuerto area="Europe/Berlin" lat="49.967499" lon="8.147222" matricula="\N" nombreCorto="Mainz" nombreLargo="Mainz-Finthen Airport" pais="Germany"/>
    <aeropuerto area="Europe/Berlin" lat="50.991604" lon="10.47973" matricula="\N" nombreCorto="Eisenach" nombreLargo="Eisenach-Kindel Airport" pais="Germany"/>
    <aeropuerto area="Europe/Berlin" lat="50.707698822021484" lon="8.082969665527344" matricula="\N" nombreCorto="Siegerland" nombreLargo="Siegerland Airport" pais="Germany"/>
    <aeropuerto area="Europe/Berlin" lat="53.5352783203125" lon="9.835556030273438" matricula="XFW" nombreCorto="Hamburg" nombreLargo="Hamburg-Finkenwerder Airport" pais="Germany"/>
    <aeropuerto area="Europe/Berlin" lat="54.37944412231445" lon="10.145277976989746" matricula="KEL" nombreCorto="Kiel" nombreLargo="Kiel-Holtenau Airport" pais="Germany"/>
    <aeropuerto area="Europe/Berlin" lat="53.8054008484" lon="10.7192001343" matricula="LBC" nombreCorto="Luebeck" nombreLargo="Lübeck Blankensee Airport" pais="Germany"/>
    <aeropuerto area="Europe/Berlin" lat="50.405555725" lon="6.5288891792" matricula="\N" nombreCorto="Dahlemer Binz" nombreLargo="Flugplatz Dahlemer Binz" pais="Germany"/>
    <aeropuerto area="Europe/Berlin" lat="51.099998474121094" lon="7.599999904632568" matricula="\N" nombreCorto="Meinerzhagen" nombreLargo="Meinerzhagen Airport" pais="Germany"/>
    <aeropuerto area="Europe/Berlin" lat="51.483890533447266" lon="7.8983330726623535" matricula="ZCA" nombreCorto="Arnsberg" nombreLargo="Arnsberg-Menden Airport" pais="Germany"/>
    <aeropuerto area="Europe/Berlin" lat="51.40230178833008" lon="6.9373297691345215" matricula="ESS" nombreCorto="Essen" nombreLargo="Essen Mulheim Airport" pais="Germany"/>
    <aeropuerto area="Europe/Berlin" lat="51.9647216797" lon="8.544444084170001" matricula="\N" nombreCorto="Bielefeld" nombreLargo="Bielefeld Airport" pais="Germany"/>
    <aeropuerto area="Europe/Berlin" lat="51.23027801513672" lon="6.504444122314453" matricula="MGL" nombreCorto="Moenchengladbach" nombreLargo="Mönchengladbach Airport" pais="Germany"/>
    <aeropuerto area="Europe/Berlin" lat="51.614101409899995" lon="8.616319656369999" matricula="PAD" nombreCorto="Paderborn" nombreLargo="Paderborn Lippstadt Airport" pais="Germany"/>
    <aeropuerto area="Europe/Berlin" lat="51.99583435058594" lon="6.8405561447143555" matricula="\N" nombreCorto="Stadtlohn" nombreLargo="Stadtlohn-Vreden Airport" pais="Germany"/>
    <aeropuerto area="Europe/Berlin" lat="51.51829910279999" lon="7.61223983765" matricula="DTM" nombreCorto="Dortmund" nombreLargo="Dortmund Airport" pais="Germany"/>
    <aeropuerto area="Europe/Berlin" lat="48.425278" lon="10.931667" matricula="AGB" nombreCorto="Augsburg" nombreLargo="Augsburg Airport" pais="Germany"/>
    <aeropuerto area="Europe/Berlin" lat="48.11111068725586" lon="9.762778282165527" matricula="\N" nombreCorto="Biberach" nombreLargo="Biberach a.d. Riß Airport" pais="Germany"/>
    <aeropuerto area="Europe/Berlin" lat="48.39611053466797" lon="12.723610877990723" matricula="\N" nombreCorto="Eggenfelden" nombreLargo="Eggenfelden Airport" pais="Germany"/>
    <aeropuerto area="Europe/Berlin" lat="48.1069450378418" lon="10.524999618530273" matricula="\N" nombreCorto="Mindelheim" nombreLargo="Mindelheim-Mattsies Airport" pais="Germany"/>
    <aeropuerto area="Europe/Berlin" lat="48.08140182495117" lon="11.283100128173828" matricula="OBF" nombreCorto="Oberpfaffenhofen" nombreLargo="Oberpfaffenhofen Airport" pais="Germany"/>
    <aeropuerto area="Europe/Berlin" lat="48.90083312988281" lon="12.516667366027832" matricula="RBM" nombreCorto="Straubing" nombreLargo="Straubing Airport" pais="Germany"/>
    <aeropuerto area="Europe/Berlin" lat="48.6349983215332" lon="13.195555686950684" matricula="\N" nombreCorto="Vilshofen" nombreLargo="Vilshofen Airport" pais="Germany"/>
    <aeropuerto area="Europe/Berlin" lat="47.858890533447266" lon="10.014166831970215" matricula="\N" nombreCorto="Leutkirch" nombreLargo="Leutkirch-Unterzeil Airport" pais="Germany"/>
    <aeropuerto area="Europe/Berlin" lat="47.671298980699994" lon="9.51148986816" matricula="FDH" nombreCorto="Friedrichshafen" nombreLargo="Friedrichshafen Airport" pais="Germany"/>
    <aeropuerto area="Europe/Berlin" lat="53.426998" lon="11.7834" matricula="SZW" nombreCorto="Parchim" nombreLargo="Schwerin Parchim Airport" pais="Germany"/>
    <aeropuerto area="Europe/Berlin" lat="52.62888717651367" lon="11.818611145019531" matricula="ZSN" nombreCorto="Stendal" nombreLargo="Stendal-Borstel Airport" pais="Germany"/>
    <aeropuerto area="Europe/Berlin" lat="48.77777862548828" lon="10.264721870422363" matricula="\N" nombreCorto="Aalen-heidenheim" nombreLargo="Aalen-Heidenheim/Elchingen Airport" pais="Germany"/>
    <aeropuerto area="Europe/Berlin" lat="49.98500061035156" lon="11.640000343322754" matricula="BYU" nombreCorto="Bayreuth" nombreLargo="Bayreuth Airport" pais="Germany"/>
    <aeropuerto area="Europe/Berlin" lat="49.794166564941" lon="11.133610725403" matricula="\N" nombreCorto="Burg Feuerstein" nombreLargo="Burg Feuerstein Airport" pais="Germany"/>
    <aeropuerto area="Europe/Berlin" lat="50.288612365722656" lon="11.856389045715332" matricula="HOQ" nombreCorto="Hof" nombreLargo="Hof-Plauen Airport" pais="Germany"/>
    <aeropuerto area="Europe/Berlin" lat="50.0180549621582" lon="10.529443740844727" matricula="\N" nombreCorto="Hassfurt" nombreLargo="Haßfurt-Schweinfurt Airport" pais="Germany"/>
    <aeropuerto area="Europe/Berlin" lat="50.325557708740234" lon="7.528611183166504" matricula="ZNV" nombreCorto="Koblenz" nombreLargo="Koblenz-Winningen Airport" pais="Germany"/>
    <aeropuerto area="Europe/Berlin" lat="49.863887786865234" lon="6.787499904632568" matricula="ZQF" nombreCorto="Trier" nombreLargo="Trier-Föhren Airport" pais="Germany"/>
    <aeropuerto area="Europe/Berlin" lat="49.30472183227539" lon="8.45138931274414" matricula="ZQC" nombreCorto="Speyer" nombreLargo="Speyer Airport" pais="Germany"/>
    <aeropuerto area="Europe/Berlin" lat="49.20940017700195" lon="7.400559902191162" matricula="ZQW" nombreCorto="Zweibruecken" nombreLargo="Zweibrücken Airport" pais="Germany"/>
    <aeropuerto area="Europe/Berlin" lat="47.97333145139999" lon="8.52222156525" matricula="ZQL" nombreCorto="Donaueschingen" nombreLargo="Donaueschingen-Villingen Airport" pais="Germany"/>
    <aeropuerto area="Europe/Berlin" lat="48.022777557400005" lon="7.83249998093" matricula="\N" nombreCorto="Freiburg" nombreLargo="Freiburg i. Br. Airport" pais="Germany"/>
    <aeropuerto area="Europe/Berlin" lat="48.053890228271484" lon="9.372777938842773" matricula="\N" nombreCorto="Mengen" nombreLargo="Mengen-Hohentengen Airport" pais="Germany"/>
    <aeropuerto area="Europe/Berlin" lat="49.1183319092" lon="9.783888816829998" matricula="\N" nombreCorto="Schwaebisch Hall" nombreLargo="Adolf Würth Airport" pais="Germany"/>
    <aeropuerto area="Europe/Berlin" lat="51.607498" lon="13.743611" matricula="\N" nombreCorto="Soest" nombreLargo="Finsterwalde/Schacksdorf Airport" pais="Germany"/>
    <aeropuerto area="Europe/Berlin" lat="52.319199" lon="10.5561" matricula="BWE" nombreCorto="Braunschweig" nombreLargo="Braunschweig Wolfsburg Airport" pais="Germany"/>
    <aeropuerto area="Europe/Berlin" lat="51.417273" lon="9.384967" matricula="KSF" nombreCorto="Kassel" nombreLargo="Kassel-Calden Airport" pais="Germany"/>
    <aeropuerto area="Europe/Berlin" lat="52.18138885498047" lon="9.946389198303223" matricula="\N" nombreCorto="Hildesheim" nombreLargo="Hildesheim Airport" pais="Germany"/>
    <aeropuerto area="Europe/Berlin" lat="53.506943" lon="8.572778" matricula="BRV" nombreCorto="Bremerhaven" nombreLargo="Bremerhaven Airport" pais="Germany"/>
    <aeropuerto area="Europe/Berlin" lat="53.391109466552734" lon="7.227499961853027" matricula="EME" nombreCorto="Emden" nombreLargo="Emden Airport" pais="Germany"/>
    <aeropuerto area="Europe/Berlin" lat="53.271942138671875" lon="7.441667079925537" matricula="\N" nombreCorto="Leer" nombreLargo="Leer-Papenburg Airport" pais="Germany"/>
    <aeropuerto area="Europe/Berlin" lat="53.502220153808594" lon="8.05222225189209" matricula="WVN" nombreCorto="Wilhelmshaven" nombreLargo="Wilhelmshaven-Mariensiel Airport" pais="Germany"/>
    <aeropuerto area="Europe/Berlin" lat="53.5963897705" lon="6.70916700363" matricula="BMK" nombreCorto="Borkum" nombreLargo="Borkum Airport" pais="Germany"/>
    <aeropuerto area="Europe/Berlin" lat="53.70694351196289" lon="7.230000019073486" matricula="NRD" nombreCorto="Norderney" nombreLargo="Norderney Airport" pais="Germany"/>
    <aeropuerto area="Europe/Berlin" lat="54.77333450317383" lon="9.378889083862305" matricula="FLF" nombreCorto="Flensburg" nombreLargo="Flensburg-Schäferhaus Airport" pais="Germany"/>
    <aeropuerto area="Europe/Berlin" lat="54.220001220703125" lon="9.599444389343262" matricula="\N" nombreCorto="Rendsburg" nombreLargo="Rendsburg-Schachtholm Airport" pais="Germany"/>
    <aeropuerto area="Europe/Berlin" lat="54.9132003784" lon="8.34047031403" matricula="GWT" nombreCorto="Westerland" nombreLargo="Westerland Sylt Airport" pais="Germany"/>
    <aeropuerto area="Europe/Tallinn" lat="59.26029968261719" lon="24.208499908447266" matricula="\N" nombreCorto="Armari Air Force Base" nombreLargo="Ämari Air Base" pais="Estonia"/>
    <aeropuerto area="Europe/Tallinn" lat="58.99079895019531" lon="22.830699920654297" matricula="KDL" nombreCorto="Kardla" nombreLargo="Kärdla Airport" pais="Estonia"/>
    <aeropuerto area="Europe/Tallinn" lat="58.22990036010742" lon="22.50950050354004" matricula="URE" nombreCorto="Kuressaare" nombreLargo="Kuressaare Airport" pais="Estonia"/>
    <aeropuerto area="Europe/Tallinn" lat="58.41899871826172" lon="24.47279930114746" matricula="EPU" nombreCorto="Parnu" nombreLargo="Pärnu Airport" pais="Estonia"/>
    <aeropuerto area="Europe/Tallinn" lat="59.41329956049999" lon="24.832799911499997" matricula="TLL" nombreCorto="Tallinn-ulemiste International" nombreLargo="Lennart Meri Tallinn Airport" pais="Estonia"/>
    <aeropuerto area="Europe/Tallinn" lat="58.3074989319" lon="26.690399169900004" matricula="TAY" nombreCorto="Tartu" nombreLargo="Tartu Airport" pais="Estonia"/>
    <aeropuerto area="Europe/Helsinki" lat="68.362602233887" lon="23.424299240112" matricula="ENF" nombreCorto="Enontekio" nombreLargo="Enontekio Airport" pais="Finland"/>
    <aeropuerto area="Europe/Helsinki" lat="61.1161003112793" lon="22.201400756835938" matricula="\N" nombreCorto="Eura" nombreLargo="Eura Airport" pais="Finland"/>
    <aeropuerto area="Europe/Helsinki" lat="61.856039" lon="24.786686" matricula="KEV" nombreCorto="Halli" nombreLargo="Halli Airport" pais="Finland"/>
    <aeropuerto area="Europe/Helsinki" lat="60.254600524902344" lon="25.042800903320312" matricula="HEM" nombreCorto="Helsinki" nombreLargo="Helsinki Malmi Airport" pais="Finland"/>
    <aeropuerto area="Europe/Helsinki" lat="60.317199707031" lon="24.963300704956" matricula="HEL" nombreCorto="Helsinki" nombreLargo="Helsinki Vantaa Airport" pais="Finland"/>
    <aeropuerto area="Europe/Helsinki" lat="61.689701080322266" lon="23.073699951171875" matricula="\N" nombreCorto="Hameenkyro" nombreLargo="Hameenkyro Airport" pais="Finland"/>
    <aeropuerto area="Europe/Helsinki" lat="59.848899841308594" lon="23.083599090576172" matricula="\N" nombreCorto="Hanko" nombreLargo="Hanko Airport" pais="Finland"/>
    <aeropuerto area="Europe/Helsinki" lat="60.6543998718" lon="24.8810997009" matricula="HYV" nombreCorto="Hyvinkaa" nombreLargo="Hyvinkää Airfield" pais="Finland"/>
    <aeropuerto area="Europe/Helsinki" lat="60.4625015259" lon="23.6525001526" matricula="\N" nombreCorto="Kikala" nombreLargo="Kiikala Airport" pais="Finland"/>
    <aeropuerto area="Europe/Helsinki" lat="61.24919891357422" lon="28.90369987487793" matricula="\N" nombreCorto="Immola" nombreLargo="Immola Airport" pais="Finland"/>
    <aeropuerto area="Europe/Helsinki" lat="62.1661" lon="30.073601" matricula="\N" nombreCorto="Kitee" nombreLargo="Kitee Airport" pais="Finland"/>
    <aeropuerto area="Europe/Helsinki" lat="68.607299804688" lon="27.405300140381" matricula="IVL" nombreCorto="Ivalo" nombreLargo="Ivalo Airport" pais="Finland"/>
    <aeropuerto area="Europe/Helsinki" lat="62.662899017334" lon="29.607500076294" matricula="JOE" nombreCorto="Joensuu" nombreLargo="Joensuu Airport" pais="Finland"/>
    <aeropuerto area="Europe/Helsinki" lat="62.399501800537" lon="25.678300857544" matricula="JYV" nombreCorto="Jyvaskyla" nombreLargo="Jyvaskyla Airport" pais="Finland"/>
    <aeropuerto area="Europe/Helsinki" lat="63.127102" lon="23.051399" matricula="KAU" nombreCorto="Kauhava" nombreLargo="Kauhava Airport" pais="Finland"/>
    <aeropuerto area="Europe/Helsinki" lat="65.778701782227" lon="24.582099914551" matricula="KEM" nombreCorto="Kemi" nombreLargo="Kemi-Tornio Airport" pais="Finland"/>
    <aeropuerto area="Europe/Helsinki" lat="64.285499572754" lon="27.692399978638" matricula="KAJ" nombreCorto="Kajaani" nombreLargo="Kajaani Airport" pais="Finland"/>
    <aeropuerto area="Europe/Helsinki" lat="62.4625015259" lon="22.3931007385" matricula="\N" nombreCorto="Kauhajoki" nombreLargo="Kauhajoki Airport" pais="Finland"/>
    <aeropuerto area="Europe/Helsinki" lat="63.721199035645" lon="23.143100738525" matricula="KOK" nombreCorto="Kruunupyy" nombreLargo="Kokkola-Pietarsaari Airport" pais="Finland"/>
    <aeropuerto area="Europe/Helsinki" lat="66.712898" lon="27.156799" matricula="\N" nombreCorto="Kemijarvi" nombreLargo="Kemijarvi Airport" pais="Finland"/>
    <aeropuerto area="Europe/Helsinki" lat="65.987602233887" lon="29.239400863647" matricula="KAO" nombreCorto="Kuusamo" nombreLargo="Kuusamo Airport" pais="Finland"/>
    <aeropuerto area="Europe/Helsinki" lat="67.700996398926" lon="24.846799850464" matricula="KTT" nombreCorto="Kittila" nombreLargo="Kittilä Airport" pais="Finland"/>
    <aeropuerto area="Europe/Helsinki" lat="63.007099151611" lon="27.797800064087" matricula="KUO" nombreCorto="Kuopio" nombreLargo="Kuopio Airport" pais="Finland"/>
    <aeropuerto area="Europe/Helsinki" lat="61.144199" lon="25.693501" matricula="\N" nombreCorto="Vesivehmaa" nombreLargo="Lahti Vesivehmaa Airport" pais="Finland"/>
    <aeropuerto area="Europe/Helsinki" lat="61.044601" lon="28.144743" matricula="LPP" nombreCorto="Lappeenranta" nombreLargo="Lappeenranta Airport" pais="Finland"/>
    <aeropuerto area="Europe/Mariehamn" lat="60.122200012207" lon="19.898199081421" matricula="MHQ" nombreCorto="Mariehamn" nombreLargo="Mariehamn Airport" pais="Finland"/>
    <aeropuerto area="Europe/Helsinki" lat="62.94670104980469" lon="23.51889991760254" matricula="\N" nombreCorto="Menkijarvi" nombreLargo="Menkijarvi Airport" pais="Finland"/>
    <aeropuerto area="Europe/Helsinki" lat="61.6866" lon="27.201799" matricula="MIK" nombreCorto="Mikkeli" nombreLargo="Mikkeli Airport" pais="Finland"/>
    <aeropuerto area="Europe/Helsinki" lat="60.333900451699996" lon="24.2964000702" matricula="\N" nombreCorto="Nummela" nombreLargo="Nummela Airport" pais="Finland"/>
    <aeropuerto area="Europe/Helsinki" lat="64.930099487305" lon="25.354600906372" matricula="OUL" nombreCorto="Oulu" nombreLargo="Oulu Airport" pais="Finland"/>
    <aeropuerto area="Europe/Helsinki" lat="61.245601654052734" lon="22.19339942932129" matricula="\N" nombreCorto="Piikajarvi" nombreLargo="Piikajarvi Airport" pais="Finland"/>
    <aeropuerto area="Europe/Helsinki" lat="61.461700439453" lon="21.799999237061" matricula="POR" nombreCorto="Pori" nombreLargo="Pori Airport" pais="Finland"/>
    <aeropuerto area="Europe/Helsinki" lat="65.4021987915" lon="26.946899414100002" matricula="\N" nombreCorto="Pudasjarvi" nombreLargo="Pudasjärvi Airport" pais="Finland"/>
    <aeropuerto area="Europe/Helsinki" lat="63.7318992615" lon="25.926300048799998" matricula="\N" nombreCorto="Pyhasalmi" nombreLargo="Pyhäsalmi Airport" pais="Finland"/>
    <aeropuerto area="Europe/Helsinki" lat="64.6881027222" lon="24.6958007812" matricula="\N" nombreCorto="Pattijoki" nombreLargo="Raahe Pattijoki Airport" pais="Finland"/>
    <aeropuerto area="Europe/Helsinki" lat="62.0654983521" lon="28.3565006256" matricula="\N" nombreCorto="Rantasalmi" nombreLargo="Rantasalmi Airport" pais="Finland"/>
    <aeropuerto area="Europe/Helsinki" lat="66.564796447754" lon="25.830400466919" matricula="RVN" nombreCorto="Rovaniemi" nombreLargo="Rovaniemi Airport" pais="Finland"/>
    <aeropuerto area="Europe/Helsinki" lat="60.74470138549805" lon="24.107799530029297" matricula="\N" nombreCorto="Rayskala" nombreLargo="Rayskala Airport" pais="Finland"/>
    <aeropuerto area="Europe/Helsinki" lat="61.943099975586" lon="28.945100784302" matricula="SVL" nombreCorto="Savonlinna" nombreLargo="Savonlinna Airport" pais="Finland"/>
    <aeropuerto area="Europe/Helsinki" lat="61.062400817871094" lon="26.798900604248047" matricula="\N" nombreCorto="Selanpaa" nombreLargo="Selanpaa Airport" pais="Finland"/>
    <aeropuerto area="Europe/Helsinki" lat="67.3949966431" lon="26.6191005707" matricula="SOT" nombreCorto="Sodankyla" nombreLargo="Sodankyla Airport" pais="Finland"/>
    <aeropuerto area="Europe/Helsinki" lat="61.414100646973" lon="23.604400634766" matricula="TMP" nombreCorto="Tampere" nombreLargo="Tampere-Pirkkala Airport" pais="Finland"/>
    <aeropuerto area="Europe/Helsinki" lat="61.7733" lon="24.027" matricula="\N" nombreCorto="Teisko" nombreLargo="Teisko Airport" pais="Finland"/>
    <aeropuerto area="Europe/Helsinki" lat="60.514099121094" lon="22.262800216675" matricula="TKU" nombreCorto="Turku" nombreLargo="Turku Airport" pais="Finland"/>
    <aeropuerto area="Europe/Helsinki" lat="60.89640045166" lon="26.938400268555" matricula="QVY" nombreCorto="Utti" nombreLargo="Utti Air Base" pais="Finland"/>
    <aeropuerto area="Europe/Helsinki" lat="63.050701141357" lon="21.762199401855" matricula="VAA" nombreCorto="Vaasa" nombreLargo="Vaasa Airport" pais="Finland"/>
    <aeropuerto area="Europe/Helsinki" lat="62.171100616455" lon="27.868600845337" matricula="VRK" nombreCorto="Varkaus" nombreLargo="Varkaus Airport" pais="Finland"/>
    <aeropuerto area="Europe/Helsinki" lat="64.0547222" lon="24.7252778" matricula="\N" nombreCorto="Ylivieska-raudaskyla" nombreLargo="Ylivieska Airfield" pais="Finland"/>
    <aeropuerto area="Europe/London" lat="54.6575012207" lon="-6.2158298492399995" matricula="BFS" nombreCorto="Belfast" nombreLargo="Belfast International Airport" pais="United Kingdom"/>
    <aeropuerto area="Europe/London" lat="54.39889907836914" lon="-7.651669979095459" matricula="ENK" nombreCorto="Enniskillen" nombreLargo="St Angelo Airport" pais="United Kingdom"/>
    <aeropuerto area="Europe/London" lat="54.618099212646484" lon="-5.872499942779541" matricula="BHD" nombreCorto="Belfast" nombreLargo="George Best Belfast City Airport" pais="United Kingdom"/>
    <aeropuerto area="Europe/London" lat="55.04280090332031" lon="-7.161109924316406" matricula="LDY" nombreCorto="Londonderry" nombreLargo="City of Derry Airport" pais="United Kingdom"/>
    <aeropuerto area="Europe/London" lat="52.453899383499994" lon="-1.74802994728" matricula="BHX" nombreCorto="Birmingham" nombreLargo="Birmingham International Airport" pais="United Kingdom"/>
    <aeropuerto area="Europe/London" lat="52.3697013855" lon="-1.4797199964499999" matricula="CVT" nombreCorto="Coventry" nombreLargo="Coventry Airport" pais="United Kingdom"/>
    <aeropuerto area="Europe/London" lat="52.6077995300293" lon="-1.03193998336792" matricula="\N" nombreCorto="Leicester" nombreLargo="Leicester Airport" pais="United Kingdom"/>
    <aeropuerto area="Europe/London" lat="51.89419937133789" lon="-2.167220115661621" matricula="GLO" nombreCorto="Golouchestershire" nombreLargo="Gloucestershire Airport" pais="United Kingdom"/>
    <aeropuerto area="Europe/London" lat="52.51750183105469" lon="-2.2594399452209473" matricula="\N" nombreCorto="Halfpenny Green" nombreLargo="Wolverhampton Halfpenny Green Airport" pais="United Kingdom"/>
    <aeropuerto area="Europe/London" lat="51.668095" lon="-2.05694" matricula="\N" nombreCorto="Pailton" nombreLargo="Cotswold Airport" pais="United Kingdom"/>
    <aeropuerto area="Europe/London" lat="52.0407981873" lon="-1.09555995464" matricula="\N" nombreCorto="Turweston" nombreLargo="Turweston Airport" pais="United Kingdom"/>
    <aeropuerto area="Europe/London" lat="52.19219970703125" lon="-1.6144399642944336" matricula="\N" nombreCorto="Wellesbourne" nombreLargo="Wellesbourne Mountford Airport" pais="United Kingdom"/>
    <aeropuerto area="Europe/London" lat="53.35369873046875" lon="-2.2749500274658203" matricula="MAN" nombreCorto="Manchester" nombreLargo="Manchester Airport" pais="United Kingdom"/>
    <aeropuerto area="Europe/London" lat="53.3381" lon="-2.14889" matricula="\N" nombreCorto="Woodfort" nombreLargo="Manchester Woodford Airport" pais="United Kingdom"/>
    <aeropuerto area="Europe/London" lat="51.08720016479492" lon="-4.1503400802612305" matricula="\N" nombreCorto="Chivenor" nombreLargo="Royal Marines Base Chivenor Airport" pais="United Kingdom"/>
    <aeropuerto area="Europe/London" lat="50.44060134887695" lon="-4.995409965515137" matricula="NQY" nombreCorto="Newquai" nombreLargo="Newquay Cornwall Airport" pais="United Kingdom"/>
    <aeropuerto area="Europe/London" lat="51.5051" lon="-1.99343" matricula="LYE" nombreCorto="Lyneham" nombreLargo="RAF Lyneham" pais="United Kingdom"/>
    <aeropuerto area="Europe/London" lat="51.152198791503906" lon="-1.7474100589752197" matricula="\N" nombreCorto="Boscombe Down" nombreLargo="MoD Boscombe Down Airport" pais="United Kingdom"/>
    <aeropuerto area="Europe/London" lat="50.08610153198242" lon="-5.255710124969482" matricula="\N" nombreCorto="Culdrose" nombreLargo="RNAS Culdrose" pais="United Kingdom"/>
    <aeropuerto area="Europe/London" lat="51.40480041503906" lon="-3.4357500076293945" matricula="\N" nombreCorto="St. Athan" nombreLargo="MOD St. Athan" pais="United Kingdom"/>
    <aeropuerto area="Europe/London" lat="51.0093994140625" lon="-2.638819932937622" matricula="YEO" nombreCorto="Yeovilton" nombreLargo="RNAS Yeovilton" pais="United Kingdom"/>
    <aeropuerto area="Europe/London" lat="51.833099365234375" lon="-4.9611101150512695" matricula="\N" nombreCorto="Haverfordwest" nombreLargo="Haverfordwest Airport" pais="United Kingdom"/>
    <aeropuerto area="Europe/London" lat="51.39670181274414" lon="-3.343329906463623" matricula="CWL" nombreCorto="Cardiff" nombreLargo="Cardiff International Airport" pais="United Kingdom"/>
    <aeropuerto area="Europe/London" lat="51.60530090332031" lon="-4.0678300857543945" matricula="SWS" nombreCorto="Swansea" nombreLargo="Swansea Airport" pais="United Kingdom"/>
    <aeropuerto area="Europe/London" lat="51.382702" lon="-2.71909" matricula="BRS" nombreCorto="Bristol" nombreLargo="Bristol Airport" pais="United Kingdom"/>
    <aeropuerto area="Europe/London" lat="53.33359909057617" lon="-2.849720001220703" matricula="LPL" nombreCorto="Liverpool" nombreLargo="Liverpool John Lennon Airport" pais="United Kingdom"/>
    <aeropuerto area="Europe/London" lat="51.874698638916016" lon="-0.36833301186561584" matricula="LTN" nombreCorto="London" nombreLargo="London Luton Airport" pais="United Kingdom"/>
    <aeropuerto area="Europe/London" lat="50.422798" lon="-4.10583" matricula="PLH" nombreCorto="Plymouth" nombreLargo="Plymouth City Airport" pais="United Kingdom"/>
    <aeropuerto area="Europe/London" lat="50.779998779296875" lon="-1.8424999713897705" matricula="BOH" nombreCorto="Bournemouth" nombreLargo="Bournemouth Airport" pais="United Kingdom"/>
    <aeropuerto area="Europe/London" lat="50.95029830932617" lon="-1.3567999601364136" matricula="SOU" nombreCorto="Southampton" nombreLargo="Southampton Airport" pais="United Kingdom"/>
    <aeropuerto area="Europe/London" lat="51.187198638916016" lon="-1.0334999561309814" matricula="QLA" nombreCorto="Lasham" nombreLargo="Lasham Airport" pais="United Kingdom"/>
    <aeropuerto area="Europe/Guernsey" lat="49.70610046386719" lon="-2.2147200107574463" matricula="ACI" nombreCorto="Alderney" nombreLargo="Alderney Airport" pais="Guernsey"/>
    <aeropuerto area="Europe/Guernsey" lat="49.435001373291016" lon="-2.6019699573516846" matricula="GCI" nombreCorto="Guernsey" nombreLargo="Guernsey Airport" pais="Guernsey"/>
    <aeropuerto area="Europe/Jersey" lat="49.20790100097656" lon="-2.195509910583496" matricula="JER" nombreCorto="Jersey" nombreLargo="Jersey Airport" pais="Jersey"/>
    <aeropuerto area="Europe/London" lat="50.835601806640625" lon="-0.29722198843955994" matricula="ESH" nombreCorto="Shoreham By Sea" nombreLargo="Shoreham Airport" pais="United Kingdom"/>
    <aeropuerto area="Europe/London" lat="51.33079910279999" lon="0.0324999988079" matricula="BQH" nombreCorto="Biggin Hill" nombreLargo="London Biggin Hill Airport" pais="United Kingdom"/>
    <aeropuerto area="Europe/London" lat="51.148101806640625" lon="-0.19027799367904663" matricula="LGW" nombreCorto="London" nombreLargo="London Gatwick Airport" pais="United Kingdom"/>
    <aeropuerto area="Europe/London" lat="51.505299" lon="0.055278" matricula="LCY" nombreCorto="London" nombreLargo="London City Airport" pais="United Kingdom"/>
    <aeropuerto area="Europe/London" lat="51.2757987976" lon="-0.776332974434" matricula="FAB" nombreCorto="Farnborough" nombreLargo="Farnborough Airport" pais="United Kingdom"/>
    <aeropuerto area="Europe/London" lat="51.67610168457031" lon="-1.0808299779891968" matricula="\N" nombreCorto="Chalsgrove" nombreLargo="Chalgrove Airport" pais="United Kingdom"/>
    <aeropuerto area="Europe/London" lat="51.32389831542969" lon="-0.8475000262260437" matricula="BBS" nombreCorto="Blackbushe" nombreLargo="Blackbushe Airport" pais="United Kingdom"/>
    <aeropuerto area="Europe/London" lat="51.4706" lon="-0.461941" matricula="LHR" nombreCorto="London" nombreLargo="London Heathrow Airport" pais="United Kingdom"/>
    <aeropuerto area="Europe/London" lat="51.5713996887207" lon="0.6955559849739075" matricula="SEN" nombreCorto="Southend" nombreLargo="Southend Airport" pais="United Kingdom"/>
    <aeropuerto area="Europe/London" lat="50.95610046386719" lon="0.9391670227050781" matricula="LYX" nombreCorto="Lydd" nombreLargo="Lydd Airport" pais="United Kingdom"/>
    <aeropuerto area="Europe/London" lat="51.342201" lon="1.34611" matricula="MSE" nombreCorto="Manston" nombreLargo="Kent International Airport" pais="United Kingdom"/>
    <aeropuerto area="Europe/London" lat="53.7197" lon="-0.566333" matricula="\N" nombreCorto="Brough" nombreLargo="Brough Airport" pais="United Kingdom"/>
    <aeropuerto area="Europe/London" lat="54.9375" lon="-2.8091700077056885" matricula="CAX" nombreCorto="Carlisle" nombreLargo="Carlisle Airport" pais="United Kingdom"/>
    <aeropuerto area="Europe/London" lat="53.280601501464844" lon="-0.9513890147209167" matricula="\N" nombreCorto="Repton" nombreLargo="Retford Gamston Airport" pais="United Kingdom"/>
    <aeropuerto area="Europe/London" lat="53.77170181274414" lon="-3.0286099910736084" matricula="BLK" nombreCorto="Blackpool" nombreLargo="Blackpool International Airport" pais="United Kingdom"/>
    <aeropuerto area="Europe/London" lat="53.57440185546875" lon="-0.350832998752594" matricula="HUY" nombreCorto="Humberside" nombreLargo="Humberside Airport" pais="United Kingdom"/>
    <aeropuerto area="Europe/London" lat="54.1286111" lon="-3.2675" matricula="BWF" nombreCorto="Barrow Island" nombreLargo="Barrow Walney Island Airport" pais="United Kingdom"/>
    <aeropuerto area="Europe/London" lat="53.86589813232422" lon="-1.6605700254440308" matricula="LBA" nombreCorto="Leeds" nombreLargo="Leeds Bradford Airport" pais="United Kingdom"/>
    <aeropuerto area="Europe/London" lat="53.74509811401367" lon="-2.8830599784851074" matricula="\N" nombreCorto="Warton" nombreLargo="Warton Airport" pais="United Kingdom"/>
    <aeropuerto area="Europe/London" lat="53.1781005859375" lon="-2.9777801036834717" matricula="CEG" nombreCorto="Hawarden" nombreLargo="Hawarden Airport" pais="United Kingdom"/>
    <aeropuerto area="Europe/Isle_of_Man" lat="54.08330154418945" lon="-4.623889923095703" matricula="IOM" nombreCorto="Isle Of Man" nombreLargo="Isle of Man Airport" pais="Isle of Man"/>
    <aeropuerto area="Europe/London" lat="55.037498474121094" lon="-1.6916699409484863" matricula="NCL" nombreCorto="Newcastle" nombreLargo="Newcastle Airport" pais="United Kingdom"/>
    <aeropuerto area="Europe/London" lat="54.50920104980469" lon="-1.4294099807739258" matricula="MME" nombreCorto="Teesside" nombreLargo="Durham Tees Valley Airport" pais="United Kingdom"/>
    <aeropuerto area="Europe/London" lat="52.8311004639" lon="-1.32806003094" matricula="EMA" nombreCorto="East Midlands" nombreLargo="East Midlands Airport" pais="United Kingdom"/>
    <aeropuerto area="Europe/London" lat="52.811698913574" lon="-4.1235799789429" matricula="\N" nombreCorto="Llanbedr" nombreLargo="Llanbedr Airport" pais="United Kingdom"/>
    <aeropuerto area="Europe/London" lat="52.87120056152344" lon="-2.533560037612915" matricula="\N" nombreCorto="Ternhill" nombreLargo="RAF Ternhill" pais="United Kingdom"/>
    <aeropuerto area="Europe/London" lat="52.79819869995117" lon="-2.6680400371551514" matricula="\N" nombreCorto="Shawbury" nombreLargo="RAF Shawbury" pais="United Kingdom"/>
    <aeropuerto area="Europe/London" lat="53.581600189199996" lon="-3.05552005768" matricula="\N" nombreCorto="Woodvale" nombreLargo="RAF Woodvale" pais="United Kingdom"/>
    <aeropuerto area="Europe/London" lat="58.957801818847656" lon="-2.9049999713897705" matricula="KOI" nombreCorto="Kirkwall" nombreLargo="Kirkwall Airport" pais="United Kingdom"/>
    <aeropuerto area="Europe/London" lat="59.87889862060547" lon="-1.2955600023269653" matricula="LSI" nombreCorto="Sumburgh" nombreLargo="Sumburgh Airport" pais="United Kingdom"/>
    <aeropuerto area="Europe/London" lat="58.458900451660156" lon="-3.09306001663208" matricula="WIC" nombreCorto="Wick" nombreLargo="Wick Airport" pais="United Kingdom"/>
    <aeropuerto area="Europe/London" lat="57.201900482177734" lon="-2.197779893875122" matricula="ABZ" nombreCorto="Aberdeen" nombreLargo="Aberdeen Dyce Airport" pais="United Kingdom"/>
    <aeropuerto area="Europe/London" lat="57.54249954223633" lon="-4.047500133514404" matricula="INV" nombreCorto="Inverness" nombreLargo="Inverness Airport" pais="United Kingdom"/>
    <aeropuerto area="Europe/London" lat="55.8718986511" lon="-4.43306016922" matricula="GLA" nombreCorto="Glasgow" nombreLargo="Glasgow International Airport" pais="United Kingdom"/>
    <aeropuerto area="Europe/London" lat="55.95000076293945" lon="-3.372499942779541" matricula="EDI" nombreCorto="Edinburgh" nombreLargo="Edinburgh Airport" pais="United Kingdom"/>
    <aeropuerto area="Europe/London" lat="55.68190002441406" lon="-6.256669998168945" matricula="ILY" nombreCorto="Islay" nombreLargo="Islay Airport" pais="United Kingdom"/>
    <aeropuerto area="Europe/London" lat="55.5093994140625" lon="-4.586669921875" matricula="PIK" nombreCorto="Prestwick" nombreLargo="Glasgow Prestwick Airport" pais="United Kingdom"/>
    <aeropuerto area="Europe/London" lat="57.48109817504883" lon="-7.3627800941467285" matricula="BEB" nombreCorto="Benbecula" nombreLargo="Benbecula Airport" pais="United Kingdom"/>
    <aeropuerto area="Europe/London" lat="60.43280029296875" lon="-1.2961100339889526" matricula="SCS" nombreCorto="Scatsta" nombreLargo="Scatsta Airport" pais="United Kingdom"/>
    <aeropuerto area="Europe/London" lat="56.45249938964844" lon="-3.025830030441284" matricula="DND" nombreCorto="Dundee" nombreLargo="Dundee Airport" pais="United Kingdom"/>
    <aeropuerto area="Europe/London" lat="58.215599060058594" lon="-6.331110000610352" matricula="SYY" nombreCorto="Stornoway" nombreLargo="Stornoway Airport" pais="United Kingdom"/>
    <aeropuerto area="Europe/London" lat="56.49919891357422" lon="-6.869170188903809" matricula="TRE" nombreCorto="Tiree" nombreLargo="Tiree Airport" pais="United Kingdom"/>
    <aeropuerto area="Europe/London" lat="56.37289810180664" lon="-2.8684399127960205" matricula="ADX" nombreCorto="Leuchars" nombreLargo="RAF Leuchars" pais="United Kingdom"/>
    <aeropuerto area="Europe/London" lat="57.7052001953125" lon="-3.339169979095459" matricula="LMO" nombreCorto="Lossiemouth" nombreLargo="RAF Lossiemouth" pais="United Kingdom"/>
    <aeropuerto area="Europe/London" lat="52.2050018311" lon="0.17499999702" matricula="CBG" nombreCorto="Cambridge" nombreLargo="Cambridge Airport" pais="United Kingdom"/>
    <aeropuerto area="Europe/London" lat="52.468101501464844" lon="-0.2511110007762909" matricula="\N" nombreCorto="Peterborough" nombreLargo="Peterborough Business Airport" pais="United Kingdom"/>
    <aeropuerto area="Europe/London" lat="52.6758003235" lon="1.28278005123" matricula="NWI" nombreCorto="Norwich" nombreLargo="Norwich International Airport" pais="United Kingdom"/>
    <aeropuerto area="Europe/London" lat="51.8849983215" lon="0.234999999404" matricula="STN" nombreCorto="London" nombreLargo="London Stansted Airport" pais="United Kingdom"/>
    <aeropuerto area="Europe/London" lat="51.721698761" lon="0.154166996479" matricula="\N" nombreCorto="North Weald" nombreLargo="North Weald Airport" pais="United Kingdom"/>
    <aeropuerto area="Europe/London" lat="53.394299" lon="-1.38849" matricula="\N" nombreCorto="Fowlmere" nombreLargo="Sheffield City Heliport" pais="United Kingdom"/>
    <aeropuerto area="Europe/London" lat="52.0722007751" lon="-0.616666972637" matricula="\N" nombreCorto="Cranfield" nombreLargo="Cranfield Airport" pais="United Kingdom"/>
    <aeropuerto area="Europe/London" lat="50.73440170288086" lon="-3.4138898849487305" matricula="EXT" nombreCorto="Exeter" nombreLargo="Exeter International Airport" pais="United Kingdom"/>
    <aeropuerto area="Europe/London" lat="51.5194015503" lon="-2.59083008766" matricula="FZO" nombreCorto="Bristol" nombreLargo="Bristol Filton Airport" pais="United Kingdom"/>
    <aeropuerto area="Europe/London" lat="51.8368988037" lon="-1.32000005245" matricula="OXF" nombreCorto="Oxford" nombreLargo="Oxford (Kidlington) Airport" pais="United Kingdom"/>
    <aeropuerto area="Europe/London" lat="51.616401672399995" lon="-1.09582996368" matricula="\N" nombreCorto="Benson" nombreLargo="RAF Benson" pais="United Kingdom"/>
    <aeropuerto area="Europe/London" lat="52.409301757799994" lon="0.56099998951" matricula="\N" nombreCorto="Lakenheath" nombreLargo="RAF Lakenheath" pais="United Kingdom"/>
    <aeropuerto area="Europe/London" lat="52.361900329589844" lon="0.48640599846839905" matricula="MHZ" nombreCorto="Mildenhall" nombreLargo="RAF Mildenhall" pais="United Kingdom"/>
    <aeropuerto area="Europe/London" lat="52.1273002625" lon="0.956264019012" matricula="\N" nombreCorto="Wattisham" nombreLargo="RAF Wattisham" pais="United Kingdom"/>
    <aeropuerto area="Europe/London" lat="52.3572006226" lon="-0.107832998037" matricula="\N" nombreCorto="Wyton" nombreLargo="RAF Wyton" pais="United Kingdom"/>
    <aeropuerto area="Europe/London" lat="51.6822013855" lon="-1.7900300025900002" matricula="FFD" nombreCorto="Fairford" nombreLargo="RAF Fairford" pais="United Kingdom"/>
    <aeropuerto area="Europe/London" lat="51.75" lon="-1.58362" matricula="BZZ" nombreCorto="Brize Norton" nombreLargo="RAF Brize Norton" pais="United Kingdom"/>
    <aeropuerto area="Europe/London" lat="51.2341003418" lon="-0.94282501936" matricula="ODH" nombreCorto="Odiham" nombreLargo="RAF Odiham" pais="United Kingdom"/>
    <aeropuerto area="Europe/London" lat="52.639999" lon="-2.30558" matricula="\N" nombreCorto="Cosford" nombreLargo="DCAE Cosford Air Base" pais="United Kingdom"/>
    <aeropuerto area="Europe/London" lat="51.553001403799996" lon="-0.418166995049" matricula="NHT" nombreCorto="Northolt" nombreLargo="RAF Northolt" pais="United Kingdom"/>
    <aeropuerto area="Europe/London" lat="53.0929985046" lon="-0.166014000773" matricula="QCY" nombreCorto="Coningsby" nombreLargo="RAF Coningsby" pais="United Kingdom"/>
    <aeropuerto area="Europe/London" lat="54.1371994019" lon="-1.42025005817" matricula="\N" nombreCorto="Dishforth" nombreLargo="RAF Dishforth" pais="United Kingdom"/>
    <aeropuerto area="Europe/London" lat="54.2924" lon="-1.5354" matricula="\N" nombreCorto="Leeming" nombreLargo="Leeming Airport" pais="United Kingdom"/>
